X,Y,objectid,wri_id,mill_name_,group_name,latitude,longitude,iso,certificat,company_na,globalid
103.185600000014304,1.926199999594855,2202,WRI_1,Ayer Itam Oil Mill,Unknown,1.9262,103.1856,MYS,None,Unknown,{7D89EDEB-EC50-407A-8E32-7D0BA8920083}
103.137700000095123,3.30300000033704,2203,WRI_10,Bukit Lee Lau,Unknown,3.303,103.1377,MYS,RSPO Certified,Unknown,{F116B2D8-EFB5-41E5-A6CE-DBD2F7ABFD0A}
111.558900000379751,-2.130600000430508,2204,WRI_100,Gemareksa Mekarsari,Unknown,-2.1306,111.5589,IDN,None,Unknown,{2FDC6EE5-1CCF-431D-8B46-2A127D584B51}
104.95740000012637,-3.948600000416049,2205,WRI_1000,Buluh Cawang Plantation,Unknown,-3.9486,104.9574,IDN,None,Unknown,{82F9A394-2AA2-4D03-8949-27B37E91D3AF}
95.665500000144519,4.698300000423633,2206,WRI_1002,Boswa Megalopolis,Unknown,4.6983,95.6655,IDN,None,Unknown,{3D0E4DC4-A923-430C-A18D-590FFE44D4E7}
97.936700000237195,2.766699999691268,2207,WRI_1003,Samudera Sawit Nabati,Unknown,2.7667,97.9367,IDN,None,Unknown,{BED9290A-E262-4923-8BAB-00942D4F6167}
99.428299999633097,3.064999999662289,2208,WRI_1004,Harkat Sejahtera,Unknown,3.065,99.4283,IDN,None,Unknown,{2ECBFCA7-FEDA-4207-9D0D-754D96A10CE2}
98.217799999680324,4.065200000073563,2209,WRI_1005,Jaya Baru Pertama,Unknown,4.0652,98.2178,IDN,None,Unknown,{93C34E51-31FD-4509-96FA-82A0A81019AE}
115.509300000112503,-1.990600000380786,2210,WRI_101,Astra Agro Lestari,Unknown,-1.9906,115.5093,IDN,None,Unknown,{427ED6D2-79AA-4DFC-A546-3E1D81332E2F}
98.366099999818303,3.94650000018073,2211,WRI_1011,Raya Padang Langkat,Unknown,3.9465,98.3661,IDN,None,Unknown,{1C851E34-2CAC-4D13-BC07-F8C2FF709AC9}
98.212400000132035,4.017100000029617,2212,WRI_1012,Sawit Jaya Makmur Sentosa,Unknown,4.0171,98.2124,IDN,None,Unknown,{44807A35-22B4-4BA1-BE9A-6A12088E603F}
98.554999999720835,3.765799999960679,2213,WRI_1014,Serdang Cemerlang,Unknown,3.7658,98.555,IDN,None,Unknown,{E3529761-F41B-4DFF-B548-6714604D2CC8}
98.494400000098778,3.349499999558707,2214,WRI_1015,Serdang Hulu,Unknown,3.3495,98.4944,IDN,None,Unknown,{E7C1D366-324D-4378-ADD7-D18093F11B57}
98.431000000245163,3.653199999649512,2215,WRI_1022,Sumber Sawit Mekar,Unknown,3.6532,98.431,IDN,None,Unknown,{A06932B0-633D-4334-A2C5-7BC345102F2B}
97.935700000154512,4.522799999784093,2216,WRI_1024,Ensem Sawita,Unknown,4.5228,97.9357,IDN,None,Unknown,{D4A59D20-B2BF-4BFA-A8C5-554A266F9101}
97.915300000263926,2.435900000212039,2217,WRI_1026,Nafasindo,Unknown,2.4359,97.9153,IDN,None,Unknown,{76B4C2B9-22A1-49B6-AD27-0E4A7B78B8A6}
99.393399999890775,2.778699999815698,2218,WRI_1027,Agrindo Indah Persada,Unknown,2.7787,99.3934,IDN,None,Unknown,{B9473389-3143-43F2-B61B-EFF11DE8D6AD}
117.708499999640324,1.260299999972839,2219,WRI_103,Gunta Samba,Unknown,1.2603,117.7085,IDN,None,Unknown,{E258F179-6478-42B9-880E-AE9F4583EC8C}
104.774499999821757,-3.72679999963742,2220,WRI_1031,Campang Tiga,Unknown,-3.7268,104.7745,IDN,None,Unknown,{D03F5AE8-6EDF-4BE6-8E07-00FEDD9251FE}
104.265499999945519,-2.848599999688598,2221,WRI_1033,Karya Sawit Lestari,Unknown,-2.8486,104.2655,IDN,None,Unknown,{FDE1AF13-4729-4296-82D5-47691178AC0D}
103.911100000279092,-3.338099999566085,2222,WRI_1045,Suryabumi Agro Langgeng,Unknown,-3.3381,103.9111,IDN,None,Unknown,{61A36DDF-4E50-4B95-98BD-1E835F828E2C}
103.818499999807131,-2.626999999752206,2223,WRI_1046,Musi Banyuasin Indah,Unknown,-2.627,103.8185,IDN,None,Unknown,{8996D951-F337-4397-A598-80F870AA49F4}
104.198200000218492,-4.049599999688737,2224,WRI_1048,Minanga Ogan,Unknown,-4.0496,104.1982,IDN,None,Unknown,{ACFDA753-5BA9-4D0F-B579-2D67E5E9F9BC}
100.071499999828632,1.062800000195732,2225,WRI_1049,Permata Hijau Pasaman,Unknown,1.0628,100.0715,IDN,None,Unknown,{CBC9A7C2-485D-4AFC-B7BB-637A2B9A4CFA}
99.720899999578194,0.121000000015931,2226,WRI_1050,Gersindo Minang Plantation,Unknown,0.121,99.7209,IDN,None,Unknown,{E8BBB7B7-59C4-4250-9A36-9EB638F676BC}
101.754099999749911,0.651199999556424,2227,WRI_1051,Siak Prima Sakti,Unknown,0.6512,101.7541,IDN,None,Unknown,{D80FB87B-1FB8-46EC-AB82-6EB1FD814491}
102.496700000081532,-4.010300000004346,2228,WRI_1052,Agrindo Indah Persada 3,Unknown,-4.0103,102.4967,IDN,None,Unknown,{8866E9E9-AC30-4E4A-A3D6-D6215B365884}
101.138599999599535,0.6266999999361,2229,WRI_1054,Bumi Mentari Karya,Unknown,0.6267,101.1386,IDN,None,Unknown,{B45A0B8A-ACF7-47D2-BB3A-2D9B0F74DF23}
100.049000000213553,-0.100400000041472,2230,WRI_1055,Perkebunan Pelalu Raya,Unknown,-0.1004,100.049,IDN,None,Unknown,{01B0C1AF-9CDB-41D1-822F-7331F9C48279}
101.278000000348896,-2.601299999619203,2231,WRI_1056,Agro Muko (PKS Muko-Muko),Unknown,-2.6013,101.278,IDN,RSPO Certified,Unknown,{99695EC0-0225-4706-9EEC-CF46B1035D6C}
101.369399999823329,-2.716400000252305,2232,WRI_1057,Agro Muko (PKS Bunga Tanjung),Unknown,-2.7164,101.3694,IDN,RSPO Certified,Unknown,{BD5BD28B-70D4-4DBE-AAE6-DB2E0D9CBB89}
102.401799999868459,-3.779899999764301,2233,WRI_1058,Karya Sawitindo Mas,Unknown,-3.7799,102.4018,IDN,None,Unknown,{550ED8AB-7E63-4667-B231-C76817DF26C1}
101.551900000094875,-1.524000000042158,2234,WRI_1062,Tidar Kerinci Agung,Unknown,-1.524,101.5519,IDN,None,Unknown,{DAAEA30C-CE7D-495B-8938-64CACA8036AE}
103.11320000031462,-4.563200000402763,2235,WRI_1065,Anugerah Pelangi Sukses,Unknown,-4.5632,103.1132,IDN,None,Unknown,{76F936F0-DAB1-4549-B73F-62A0E9B8A0D6}
99.477100000075879,0.229899999932302,2236,WRI_1066,Bakrie Pasaman Plantation,Unknown,0.2299,99.4771,IDN,None,Unknown,{F51596AC-EC74-4909-BEFF-27042C12C559}
101.639900000186458,-0.728199999591858,2237,WRI_1068,Tribakti Sari Mas,Unknown,-0.7282,101.6399,IDN,None,Unknown,{19050F68-3410-40BF-8B9C-7E2E14F71961}
108.024300000001588,-2.698699999725451,2238,WRI_107,Steelindo Wahana Perkasa,Unknown,-2.6987,108.0243,IDN,None,Unknown,{66782BEB-FC22-4049-89EC-B63208029D1D}
101.16270000024528,-2.385699999697719,2239,WRI_1070,Sapta Sentosa Jaya Abadi,Unknown,-2.3857,101.1627,IDN,None,Unknown,{F4838096-D409-4EE8-BFAF-2A489A666513}
99.877299999936909,-0.320299999848118,2240,WRI_1072,Mutiara Agam,Unknown,-0.3203,99.8773,IDN,None,Unknown,{D4068497-98AA-43C8-BE18-790EAB350855}
102.368999999850701,-3.777899999732513,2241,WRI_1073,Palma Mas Sejati,Unknown,-3.7779,102.369,IDN,None,Unknown,{590AE75C-45CD-4DF5-A72B-506A70C54F4C}
103.543100000386218,-1.348499999860338,2242,WRI_1079,Batanghari Sawit Sejahtera,Unknown,-1.3485,103.5431,IDN,None,Unknown,{ECD9B80C-ADD1-4AA5-8079-D430E2E9B180}
103.495500000042725,-1.386300000312283,2243,WRI_108,Bukit Bintang Sawit,Unknown,-1.3863,103.4955,IDN,None,Unknown,{EFFF40CF-CF19-434B-802B-7BB3D93FF6AA}
101.276699999792228,1.151699999675186,2244,WRI_1081,Sawit Anugrah Sejahtera,Unknown,1.1517,101.2767,IDN,None,Unknown,{7824EC34-009C-4CEF-AA17-F2B0B3B900CF}
103.861200000194529,-1.495100000207687,2245,WRI_1082,Ricky Kurniawan Kertapersada,Unknown,-1.4951,103.8612,IDN,None,Unknown,{7C3003F1-0A03-436A-97F8-AD9F481714D0}
103.627900000213117,-1.444400000089939,2246,WRI_1085,Petaling Mandraguna,Unknown,-1.4444,103.6279,IDN,None,Unknown,{EEBFA4CB-E4E2-47B1-AAAC-81EC4646FBF0}
101.054900000312799,0.162099999727998,2247,WRI_1087,Ciliandra Perkasa,Unknown,0.1621,101.0549,IDN,None,Unknown,{C1EC26C2-CB8B-4F43-BB97-D3B372BB73FA}
101.729700000426874,0.537999999596614,2248,WRI_1088,Meridian Sejati Surya Plant,Unknown,0.538,101.7297,IDN,None,Unknown,{8C8CC7E3-0CA3-45A4-BF70-4E269A0C1A7B}
101.305300000360972,1.393799999871139,2249,WRI_1089,Muriniwood Indah Industry,Unknown,1.3938,101.3053,IDN,None,Unknown,{DD62BE4B-221C-4CAA-B5E2-C1EF092FBE85}
103.165099999666296,-1.068699999896094,2250,WRI_1092,Trimitra Lestari,Unknown,-1.0687,103.1651,IDN,None,Unknown,{46069FF5-35AD-48F1-AD2B-C14F34422D5A}
103.328000000113462,-1.346700000033368,2251,WRI_1093,Brahma Bina Bakti,Unknown,-1.3467,103.328,IDN,None,Unknown,{6C83C685-F05B-496E-ABFD-85A49D147BC9}
99.382799999912407,0.332900000074994,2252,WRI_1098,Bintara Tani Nusantara,Unknown,0.3329,99.3828,IDN,None,Unknown,{BD47FB9C-5447-4E9D-B77B-57604644051C}
101.648599999558513,-1.320100000236425,2253,WRI_1099,Incasi Raya (PKS Pangian),Unknown,-1.3201,101.6486,IDN,None,Unknown,{0E95DD2D-93E0-43EA-A998-AC09F16A4863}
101.386800000364104,-0.108999999860624,2254,WRI_110,Adimulia Agrolestari,Unknown,-0.109,101.3868,IDN,None,Unknown,{B58FBEE3-26AE-4F99-9363-B75057FB46A4}
100.917299999712284,-2.1842000000081,2255,WRI_1100,Incasi Raya (PKS Sodetan),Unknown,-2.1842,100.9173,IDN,None,Unknown,{A930E73F-5D2E-4B10-8C4C-46381B700D82}
102.234699999972293,-1.684300000126601,2256,WRI_1101,Mega Sawindo Perkasa,Unknown,-1.6843,102.2347,IDN,None,Unknown,{65A08DAD-5B4B-4581-B2EE-5DC19B3BBCCB}
101.575700000266636,-1.250300000285705,2257,WRI_1103,Selago Makmur Plantation,Unknown,-1.2503,101.5757,IDN,None,Unknown,{21D331B1-210E-49A2-A7EE-AF30849DB575}
100.027600000240284,-0.061300000112626,2258,WRI_1105,Inkud Agritama,Unknown,-0.0613,100.0276,IDN,None,Unknown,{9D2260DB-F67C-4105-AC1D-0A98DB6372FA}
103.737399999837066,-3.459999999558349,2259,WRI_1108,Cipta Futura,Unknown,-3.46,103.7374,IDN,None,Unknown,{2023F7C7-8127-4A2E-9F74-7AD38B869257}
105.158799999715256,-4.029899999958681,2260,WRI_1109,Garuda Bumi Perkasa,Unknown,-4.0299,105.1588,IDN,None,Unknown,{302FB7FC-2E87-4863-900A-C42E0C71F982}
103.750800000047008,-2.916199999936232,2261,WRI_1111,Guthrie Pecconina Indonesia,Unknown,-2.9162,103.7508,IDN,RSPO Certified,Unknown,{3007D22B-F409-4403-8534-7B0CF230B931}
104.15030000029931,-2.535800000236356,2262,WRI_1112,Cahaya Cemerlang Lestari,Unknown,-2.5358,104.1503,IDN,None,Unknown,{9A131C8C-8CD2-49A0-9155-B739D26486B9}
103.201200000406189,-1.5851000002896,2263,WRI_1118,Inti Indosawit Subur (PKS Muara Bulian),Unknown,-1.5851,103.2012,IDN,RSPO Certified,Unknown,{D5E22083-3A89-4BDB-8AEB-1DCA34215947}
102.094999999647285,-0.223200000104646,2264,WRI_1119,Inti Indosawit Subur (PKS Ukai II),Unknown,-0.2232,102.095,IDN,None,Unknown,{0751311C-D45D-47B3-AAB9-6ECE8D59CEF2}
110.193899999776249,-0.038899999779574,2265,WRI_1121,Surya Borneo Indah,Unknown,-0.0389,110.1939,IDN,None,Unknown,{6B7648D8-2907-42C2-9640-FEAF7753D295}
103.724700000134177,-1.533999999985963,2266,WRI_1130,Erasakti Wira Forestama,Unknown,-1.534,103.7247,IDN,None,Unknown,{17CA8438-1F46-4EB1-BE22-F1A3B270F715}
111.59680000037018,-0.309199999798338,2267,WRI_1131,PT. Sinar Dinamika Kapuas,Unknown,-0.3092,111.5968,IDN,None,Unknown,{251AE640-EB0E-416C-A4FC-7798913EDABF}
110.431400000105,0.359100000388136,2268,WRI_1132,Mitra Austral Sejahtera,Unknown,0.3591,110.4314,IDN,None,Unknown,{08C84A8E-1E24-4F7F-8DEA-60C8DB8186F7}
101.039000000345226,4.305200000240667,2269,WRI_1134,BKT.KAPAH,Unknown,4.3052,101.039,MYS,None,Unknown,{EC44EB53-3CB0-4FD8-BCA2-FDF00EC5675B}
100.392399999868516,1.783699999625664,2270,WRI_1139,PT. Kencana Andalan Nusantara,Unknown,1.7837,100.3924,IDN,None,Unknown,{21276AD5-81A2-4A15-93FF-79FD8BF1B1D2}
101.237500000143442,0.006199999602341,2271,WRI_114,Ganda Buanindo,Unknown,0.0062,101.2375,IDN,None,Unknown,{8D9F15C0-7976-422A-9953-F5F10C602AAA}
102.840600000226999,-4.37820000014599,2272,WRI_1148,Sinar Bengkulu Selatan,Unknown,-4.3782,102.8406,IDN,None,Unknown,{FF0CC2BF-7354-4764-B5AB-41BC4504C2B8}
105.096700000418309,-3.706900000353161,2273,WRI_1149,Selapan Jaya (Limau Mungkur),Unknown,-3.7069,105.0967,IDN,None,Unknown,{EB0EF1E1-D595-4556-B9F7-334CEBACDD2F}
101.904800000086382,0.3036000003604,2274,WRI_115,Langgam Inti Hibrindo,Unknown,0.3036,101.9048,IDN,None,Unknown,{789ECAB1-144F-4327-B867-9C4146BE5253}
96.494699999553589,3.807700000221844,2275,WRI_1151,Surya Panen Subur,Unknown,3.8077,96.4947,IDN,None,Unknown,{DDCC56B5-6EC3-42A1-8CB6-FC56F84851DC}
101.299800000355233,-2.665499999584382,2276,WRI_1154,Sentosa Sejahtera Sejati,Unknown,-2.6655,101.2998,IDN,None,Unknown,{BDA9A95B-CCF1-423D-BDC8-033BC1AB77BE}
116.186300000408536,-2.807700000339282,2277,WRI_1155,Sinar Kencana Inti Perkasa (Senakin),Unknown,-2.8077,116.1863,IDN,None,Unknown,{F376B998-03FA-42B4-BC48-B1BCFD956B74}
98.407400000089936,3.765799999960679,2278,WRI_1156,Sumber Kembang Jaya,Unknown,3.7658,98.4074,IDN,None,Unknown,{09A70516-5BE3-4C04-8488-63C2D55B6466}
100.431000000365984,1.871200000170997,2279,WRI_1157,Cipta Agro Sejati,Unknown,1.8712,100.431,IDN,None,Unknown,{9B640748-5F87-444B-8C1F-C603FB362EE7}
98.179600000114235,3.931899999568873,2280,WRI_1158,PT BINA RAHMAD MADANI,Unknown,3.9319,98.1796,IDN,None,Unknown,{2EE05FDA-1B1C-423F-8069-D444BEE0073B}
98.362799999994536,3.963300000119045,2281,WRI_1161,PT JAYA PALMA NUSANTARA,Unknown,3.9633,98.3628,IDN,None,Unknown,{93D2E40E-E795-401A-8AFC-B041FC218566}
96.474299999663003,4.048900000132379,2282,WRI_1162,PT SAWIT NAGAN RAYA MAKMUR,Unknown,4.0489,96.4743,IDN,None,Unknown,{C8C4055C-0E54-4FBB-8AF9-74702AB0F1C6}
99.723699999809782,1.428300000349539,2283,WRI_1163,PT SINARLIKA PORTIBIJAYA PLANTATION,Unknown,1.4283,99.7237,IDN,None,Unknown,{F1FFD67C-DAC1-45A1-A74E-A9D52F82564C}
99.017800000267655,3.367499999912694,2284,WRI_1169,Tunas Harapan Sawit,Unknown,3.3675,99.0178,IDN,None,Unknown,{12098326-F2C7-45CA-B556-1F164EE75AE4}
101.663599999900768,-1.075999999602985,2285,WRI_1174,Dharmasraya Lestarindo,Unknown,-1.076,101.6636,IDN,None,Unknown,{59BD8F31-786D-4977-8C3D-8C6E0FACD36C}
100.616900000020394,0.995800000143186,2286,WRI_1175,Citra Bumi Agro,Unknown,0.9958,100.6169,IDN,None,Unknown,{5F41D624-22D8-4112-8131-D2E2DDD142ED}
97.909699999800793,4.574299999807857,2287,WRI_1178,ANUGRAH FAJAR REZEKI,Unknown,4.5743,97.9097,IDN,None,Unknown,{5C45E106-3171-4D2B-AD1D-3343222D58FE}
101.750900000383581,-1.439399999672829,2288,WRI_1179,JAMIKA RAYA,Unknown,-1.4394,101.7509,IDN,None,Unknown,{45E6E1C1-65A8-4E35-9E09-1BB9DEC8D754}
98.794199999741053,3.541899999670459,2289,WRI_1180,PALM TRIMITRA INDOTAMA,Unknown,3.5419,98.7942,IDN,None,Unknown,{1769C534-E348-4C00-ADF3-DA1217D48B8C}
99.222499999680323,3.342299999734099,2290,WRI_1181,KARYA SERASI JAYA ABADI,Unknown,3.3423,99.2225,IDN,None,Unknown,{E97C9E67-7259-4C82-891C-AE0197431968}
118.134099999805414,5.20429999968099,2291,WRI_1182,SANG GUAN,Unknown,5.2043,118.1341,MYS,None,Unknown,{8D4482EE-47D8-4741-BA9E-543AC2879273}
100.127299999952044,1.473299999788257,2292,WRI_1183,PT PERKEBUNAN MILANO PINANG AWAN POM,Unknown,1.4733,100.1273,IDN,None,Unknown,{865EAB9C-813E-44AE-A6B7-4EF262FD70FA}
100.397699999857679,1.301100000170421,2293,WRI_120,Nagamas Agro Mulia,Unknown,1.3011,100.3977,IDN,None,Unknown,{1BD7D44D-2493-41B5-977C-4C7713713A32}
101.087199999840067,0.582099999605685,2294,WRI_124,Sewangi Sawit Sejahtera,Unknown,0.5821,101.0872,IDN,None,Unknown,{FDD85A23-15E9-4EA3-A8C1-7F91894C2DCA}
101.474299999965126,-0.213400000368838,2295,WRI_125,Citra Riau Sarana,Unknown,-0.2134,101.4743,IDN,None,Unknown,{E3BEE20E-A1A5-4135-BD90-05A9D6FB6551}
118.251899999666648,4.68629999991405,2296,WRI_126,GIRAM OIL MILL,Unknown,4.6863,118.2519,MYS,None,Unknown,{77A2EBAF-8DEC-4770-B6D5-D311205CF128}
103.282300000376225,2.010700000091724,2297,WRI_129,Kian Hoe Plantations,Unknown,2.0107,103.2823,MYS,None,Unknown,{0F313C89-D2F3-480E-B67D-613777E73CE2}
102.532999999939648,2.271199999629476,2298,WRI_13,Lenga Palm Oil Industries,Unknown,2.2712,102.533,MYS,None,Unknown,{358691B7-B805-4751-B00C-23E1CB09B93C}
103.392299999592339,2.11100000020692,2299,WRI_132,Pamol Klauang,Unknown,2.111,103.3923,MYS,RSPO Certified,Unknown,{75393750-56E2-4AF3-B48C-B630814505DE}
102.506599999552833,2.49880000032762,2300,WRI_1329,Unknown,Unknown,2.4988,102.5066,MYS,None,Unknown,{2887478B-DEFC-4796-B219-CF1C9A7C2016}
151.033299999750938,-5.316699999765076,2301,WRI_133,Hargy,Unknown,-5.3167,151.0333,PNG,None,Unknown,{D547B113-931E-4B9C-9202-B20E60382C0E}
101.320600000278915,4.102499999823287,2302,WRI_1332,Unknown,Unknown,4.1025,101.3206,MYS,None,Unknown,{557B5C4A-D76E-42CB-95A2-F98982D5460A}
102.175800000041647,5.099699999761176,2303,WRI_1333,Unknown,Unknown,5.0997,102.1758,MYS,None,Unknown,{DCC4B21A-6650-4129-89F0-41EF7FFAA647}
101.140199999731877,4.056099999795758,2304,WRI_1334,Unknown,Unknown,4.0561,101.1402,MYS,None,Unknown,{22C733EF-1B06-4533-942C-FF89B74944DB}
101.167299999727419,3.998700000421543,2305,WRI_1339,Unknown,Unknown,3.9987,101.1673,MYS,None,Unknown,{7B217605-FE23-4D5A-B15D-8D18345C939F}
100.712899999875305,4.710700000251538,2306,WRI_1340,Unknown,Unknown,4.7107,100.7129,MYS,None,Unknown,{488E256C-5743-4693-A3D5-DFBD7E8C25A3}
101.164999999986335,4.161399999765221,2307,WRI_1341,Unknown,Unknown,4.1614,101.165,MYS,None,Unknown,{96D14661-6264-4F51-9AD0-F69371315146}
101.467399999843622,3.49739999977512,2308,WRI_1352,Unknown,Unknown,3.4974,101.4674,MYS,None,Unknown,{4642508A-F4AA-454E-8516-0BE01EB27EF8}
100.694999999742336,4.608000000276274,2309,WRI_1354,Unknown,Unknown,4.608,100.695,MYS,None,Unknown,{89A1EE6D-2BF6-4017-92AC-E63D32278A10}
101.974900000044983,4.891500000073512,2310,WRI_1356,Unknown,Unknown,4.8915,101.9749,MYS,None,Unknown,{1E87ABAD-3978-4AAB-BEF8-C8B74BBBB1DF}
102.5073000000599,3.410700000338676,2311,WRI_1358,Unknown,Unknown,3.4107,102.5073,MYS,None,Unknown,{D6F4461A-334C-4A4E-9528-82F50D05E915}
102.918200000356762,3.603800000343709,2312,WRI_1359,Unknown,Unknown,3.6038,102.9182,MYS,None,Unknown,{63CE55C3-500C-4B9C-AD2D-C843C044AFFF}
102.182300000130098,3.504000000400471,2313,WRI_1361,Unknown,Unknown,3.504,102.1823,MYS,None,Unknown,{441A2E75-0683-446D-AA92-82EEA42779BE}
101.19109999989918,3.957999999601477,2314,WRI_1362,Unknown,Unknown,3.958,101.1911,MYS,None,Unknown,{C12757F3-55D1-43DD-BB5D-DE82AA08D778}
101.390700000237487,3.103599999918981,2315,WRI_1363,Unknown,Unknown,3.1036,101.3907,MYS,None,Unknown,{D30E911C-080E-4FB2-9D83-B876814CFEB0}
101.650100000131729,2.851700000334981,2316,WRI_1364,Unknown,Unknown,2.8517,101.6501,MYS,None,Unknown,{DDF64723-2E58-487D-8533-3F732528C82E}
102.588499999589061,3.465700000065858,2317,WRI_1365,Unknown,Unknown,3.4657,102.5885,MYS,None,Unknown,{FD565748-94DB-47AC-8577-C04523D7B734}
100.96830000033701,3.853800000252284,2318,WRI_1367,Unknown,Unknown,3.8538,100.9683,MYS,None,Unknown,{EAD28728-3256-47F1-8AA0-C51B6196F63D}
100.902799999860548,3.889700000314223,2319,WRI_1368,Unknown,Unknown,3.8897,100.9028,MYS,None,Unknown,{70792051-9503-4AFE-8AC2-D92BF10B5E9F}
101.65529999966347,2.650299999660219,2320,WRI_1370,Unknown,Unknown,2.6503,101.6553,MYS,None,Unknown,{97C223DA-26AE-4A00-AE92-24B625E8464C}
99.963400000320476,1.48760000007731,2321,WRI_1372,Unknown,Unknown,1.4876,99.9634,IDN,None,Unknown,{9E5EFAC2-0641-4FC2-B477-4FDB99C4CF51}
-83.003199999890001,8.629500000289791,2322,WRI_1376,Unknown,Unknown,8.6295,-83.0032,CRI,None,Unknown,{E58196AE-621A-48B8-994E-DA665ABB36D6}
103.656400000324439,2.368199999569658,2323,WRI_1377,Unknown,Unknown,2.3682,103.6564,MYS,None,Unknown,{40FA6A88-8B1E-4EC8-983D-993015FE84C4}
103.535099999724594,2.721300000118428,2324,WRI_1378,Unknown,Unknown,2.7213,103.5351,MYS,None,Unknown,{97486BAE-68DA-4F17-987C-915232A43FAE}
100.668899999829534,4.244899999887767,2325,WRI_138,PGEO Edible Oils Sdn Bhd (Luut Division),Unknown,4.2449,100.6689,MYS,None,Unknown,{C83A097D-3860-4AB9-B1E4-099D040CDC9F}
102.836399999879632,2.615999999979874,2326,WRI_1380,Unknown,Unknown,2.616,102.8364,MYS,None,Unknown,{0939350F-BE39-4465-90D1-8EA93D95D7CC}
100.57880000001343,0.725899999984875,2327,WRI_1381,Unknown,Unknown,0.7259,100.5788,IDN,None,Unknown,{0F3F2F3D-6C35-416E-979D-924D1E503453}
101.109700000353484,0.643999999858975,2328,WRI_1382,Unknown,Unknown,0.644,101.1097,IDN,None,Unknown,{3A6FF581-AF4E-4EAD-9A15-CC8891D5774C}
100.750900000323171,0.578800000249753,2329,WRI_1383,Unknown,Unknown,0.5788,100.7509,IDN,None,Unknown,{272A3391-1099-4CC7-91CE-2E324E406612}
102.242400000159947,-3.644399999984106,2330,WRI_1384,Unknown,Unknown,-3.6444,102.2424,IDN,None,Unknown,{747DF341-D7EE-458E-9E34-33C4853018A5}
101.016200000256191,4.449600000108711,2331,WRI_1391,Unknown,Unknown,4.4496,101.0162,MYS,None,Unknown,{F77281E6-FF12-40EB-827C-EC317CD1BB35}
103.376300000065697,1.767199999729934,2332,WRI_1394,Unknown,Unknown,1.7672,103.3763,MYS,None,Unknown,{61DE5985-B278-41A7-8E62-26940BD19A02}
103.058600000290483,3.087500000370597,2333,WRI_1397,Unknown,Unknown,3.0875,103.0586,MYS,None,Unknown,{B5C02C21-1BAA-4C8B-BCA7-BBC514CD404F}
113.040800000320885,3.180899999850287,2334,WRI_140,Lavang Palm Oil Mill,Unknown,3.1809,113.0408,MYS,RSPO Certified,Unknown,{B9034B4D-99DC-4F0E-B8AC-B45223DC6B25}
102.857999999869449,2.990499999717882,2335,WRI_1402,Unknown,Unknown,2.9905,102.858,MYS,None,Unknown,{0FA56FCE-D4F5-4F8A-9EFD-2EF5176A653C}
100.694999999742336,4.648000000242558,2336,WRI_1407,Unknown,Unknown,4.648,100.695,MYS,None,Unknown,{AFA0C939-107B-4EC5-8553-6D5A1FCB6101}
100.630199999772941,5.582299999933088,2337,WRI_1409,Unknown,Unknown,5.5823,100.6302,MYS,None,Unknown,{91D031B8-D09A-4B05-92C8-FB0FCC9E5F59}
102.40649999980802,3.634000000248827,2338,WRI_141,Kerdau Palm Oil Mill,Unknown,3.634,102.4065,MYS,None,Unknown,{0CF98EB5-14B2-4C4A-924B-EEE8F9F0EDF7}
103.670999999735315,2.381200000173586,2339,WRI_1419,Unknown,Unknown,2.3812,103.671,MYS,None,Unknown,{D88FAD2D-37DA-4FEA-BE7B-183308A36638}
101.365800000423917,3.372400000266829,2340,WRI_142,Tennamaram Palm Oil Mill,Unknown,3.3724,101.3658,MYS,None,Unknown,{F1ECF38C-A018-4E99-B411-36351C5C6471}
101.088700000413283,4.817999999600864,2341,WRI_1421,Unknown,Unknown,4.818,101.0887,MYS,None,Unknown,{3841E8C7-4F05-4A54-A239-95044FD87B12}
100.937800000060292,3.894499999719126,2342,WRI_1422,Unknown,Unknown,3.8945,100.9378,MYS,None,Unknown,{AC028481-9C86-47A7-919F-279DE97832C9}
117.050000000425143,6.714399999592032,2343,WRI_1423,Unknown,Unknown,6.7144,117.05,MYS,None,Unknown,{A00ABD1B-8D4F-48FF-8A89-B80D99671059}
102.399399999669967,2.805300000388441,2344,WRI_1426,Unknown,Unknown,2.8053,102.3994,MYS,None,Unknown,{D492DBE5-4BD2-4120-87F2-63EFA7E19A7A}
114.001199999801102,4.282800000030334,2345,WRI_1427,Unknown,Unknown,4.2828,114.0012,MYS,None,Unknown,{85C6C662-4F2A-4592-9618-E547C8ABB70B}
102.413399999929553,2.594600000141649,2346,WRI_1432,Unknown,Unknown,2.5946,102.4134,MYS,None,Unknown,{1D41E52F-4FF1-462F-A05F-D042C8A4F4DD}
101.811299999989089,3.910300000155849,2347,WRI_1433,Unknown,Unknown,3.9103,101.8113,MYS,None,Unknown,{A49B001A-A368-4998-B153-326CB3C654C1}
101.499500000252695,2.875599999998415,2348,WRI_1435,Unknown,Unknown,2.8756,101.4995,MYS,None,Unknown,{922CEFEB-583A-4944-96FD-197C14B3324F}
101.775200000147521,4.204799999653615,2349,WRI_144,Bukit Puteri Palm Oil Mill,Unknown,4.2048,101.7752,MYS,None,Unknown,{62026B1C-00EE-4ED8-8046-3EF39E442448}
97.926599999851021,4.061199999986122,2350,WRI_1445,Unknown,Unknown,4.0612,97.9266,IDN,None,Unknown,{27929E7A-D24D-46A5-A660-989E2468E946}
113.992199999955076,4.405599999580446,2351,WRI_145,Sarawak Plantation Agriculture Development (Niah Mill),Unknown,4.4056,113.9922,MYS,None,Unknown,{04E3D3A6-8B66-4CFD-8C04-08CD1C0BD581}
101.355200000445549,3.145599999614238,2352,WRI_1457,Unknown,Unknown,3.1456,101.3552,MYS,None,Unknown,{05CE1E5A-5744-4B52-877D-4152090021CC}
109.985200000032762,1.490099999966589,2353,WRI_146,Bau Palm Oil Mill,Unknown,1.4901,109.9852,MYS,None,Unknown,{57BF7465-7CA9-4ECF-BB02-D02A7062CD01}
103.65939999967425,2.410099999891979,2354,WRI_1464,Unknown,Unknown,2.4101,103.6594,MYS,None,Unknown,{69BD202C-EA50-4B21-AC60-1C8027875B24}
116.944199999759775,6.672799999723821,2355,WRI_1469,Unknown,Unknown,6.6728,116.9442,MYS,None,Unknown,{2FD0C138-90A7-41E4-A983-157FE2EBBA88}
111.384399999871533,1.70619999959997,2356,WRI_147,Saratok Palm Oil Mill,Unknown,1.7062,111.3844,MYS,None,Unknown,{FB912640-48CC-4C25-9099-BE0E567F9AAC}
102.387599999592354,2.804599999624198,2357,WRI_1470,Unknown,Unknown,2.8046,102.3876,MYS,None,Unknown,{18174C18-741C-4C2F-ACC1-6A0D9EC050F2}
100.745899999909653,5.606399999676381,2358,WRI_1472,Unknown,Unknown,5.6064,100.7459,MYS,None,Unknown,{C07EEE16-DF74-425A-8547-F8A49DFEFC59}
103.885200000382838,1.486199999907429,2359,WRI_1474,Unknown,Unknown,1.4862,103.8852,MYS,None,Unknown,{702C403E-1277-4971-8A25-42E5E4ED21DD}
102.487999999811137,2.484999999649475,2360,WRI_1476,Unknown,Unknown,2.485,102.488,MYS,None,Unknown,{82BC7FC9-E764-4F02-AD89-1B7107985E8C}
101.792500000230888,3.986499999908142,2361,WRI_1477,Unknown,Unknown,3.9865,101.7925,MYS,None,Unknown,{BB7B8446-1E60-4CC9-8E71-C994B22B4696}
101.170000000399867,3.987000000266112,2362,WRI_1482,Unknown,Unknown,3.987,101.17,MYS,None,Unknown,{F755A2A9-5398-4F84-8C00-66F3240D841D}
99.300699999859674,3.31499999976143,2363,WRI_1486,Unknown,Unknown,3.315,99.3007,IDN,None,Unknown,{68946458-E7E9-4483-BC53-DAA5689A44A5}
97.960900000442024,4.088499999710542,2364,WRI_1488,Unknown,Unknown,4.0885,97.9609,IDN,None,Unknown,{D539DD7E-08ED-4511-B556-F5F8C43BAD67}
110.903300000056973,1.186200000359875,2365,WRI_149,Melur Gemilang Palm Oil Mill,Unknown,1.1862,110.9033,MYS,None,Unknown,{AF499404-B2B2-45A5-B2BA-9CEE1799C420}
103.959400000231369,1.521100000393198,2366,WRI_1493,Unknown,Unknown,1.5211,103.9594,MYS,None,Unknown,{326200BF-B705-4197-A1B2-7A2CA383C893}
101.541700000149604,2.872599999813963,2367,WRI_1497,Unknown,Unknown,2.8726,101.5417,MYS,None,Unknown,{CA7E3DA0-9952-40C8-B96F-D34A11F86A12}
113.749999999686779,3.799999999877618,2368,WRI_150,Arah Bersama,Unknown,3.8,113.75,MYS,None,Unknown,{EBED40BC-D6A6-426D-80D4-E07DD8908A46}
102.004400000239002,4.836500000266716,2369,WRI_1505,Unknown,Unknown,4.8365,102.0044,MYS,None,Unknown,{65B0EFBE-C802-4580-A643-A8A14023BF3B}
103.036099999777079,3.101999999693998,2370,WRI_1509,Unknown,Unknown,3.102,103.0361,MYS,None,Unknown,{A817B053-531A-49A1-B825-344AB33E22EA}
102.889399999771456,1.97469999987596,2371,WRI_1517,Unknown,Unknown,1.9747,102.8894,MYS,None,Unknown,{D99C6360-9C73-432E-99C8-083B6FAD5104}
102.767099999987209,3.631800000256692,2372,WRI_1519,Unknown,Unknown,3.6318,102.7671,MYS,None,Unknown,{3672A1D3-BE0B-4CBA-8FA6-12C19C3D6717}
111.368899999937085,2.494499999552768,2373,WRI_152,JT Oil Development,Unknown,2.4945,111.3689,MYS,None,Unknown,{B23230AC-4226-4E3E-8221-3BC6E8273CF8}
102.2224000003025,3.982899999648229,2374,WRI_1520,Unknown,Unknown,3.9829,102.2224,MYS,None,Unknown,{9A74F04E-3ABD-4FA1-BD08-D00B73040A13}
101.855999999643615,3.766799999687377,2375,WRI_1521,Unknown,Unknown,3.7668,101.856,MYS,None,Unknown,{20064C4A-7056-4E3C-B8F3-55AAC189EF8A}
101.981200000116885,3.528000000115392,2376,WRI_1522,Unknown,Unknown,3.528,101.9812,MYS,None,Unknown,{C2CFDC3A-6945-4B5B-9DC1-772DD28CFA40}
102.912300000317941,3.671999999824085,2377,WRI_1524,Unknown,Unknown,3.672,102.9123,MYS,None,Unknown,{23FBE8E3-EAC2-4F9C-AE38-04FC887668FD}
102.500700000412365,3.853800000252284,2378,WRI_1525,Unknown,Unknown,3.8538,102.5007,MYS,None,Unknown,{E75E5AF2-1B4E-444E-8AF9-EAD7606269F5}
100.968999999945751,4.24379999977968,2379,WRI_1527,Unknown,Unknown,4.2438,100.969,MYS,None,Unknown,{11B74334-98F1-4997-A83E-9E35899821CD}
113.719399999850907,3.656299999903148,2380,WRI_153,Alambumi Palm Oil Mill,Unknown,3.6563,113.7194,MYS,None,Unknown,{C682F0CB-DC9F-4878-A58D-54F0DA5FB71C}
101.467700000317578,2.845599999741415,2381,WRI_1532,Unknown,Unknown,2.8456,101.4677,MYS,None,Unknown,{DD794F22-B382-4B68-A2FA-4E0F393C2732}
100.101299999598325,1.944799999638133,2382,WRI_1533,Unknown,Unknown,1.9448,100.1013,IDN,None,Unknown,{9EEF2746-0BEB-45E6-812F-9BE1245C9C37}
102.220899999729284,5.48610000026321,2383,WRI_1537,Unknown,Unknown,5.4861,102.2209,MYS,None,Unknown,{2BA74AB0-27C3-4B40-A5AD-947BC79016E4}
112.381500000141273,2.976199999790635,2384,WRI_154,Mukah Kilang Kelapa Sawit,Unknown,2.9762,112.3815,MYS,None,Unknown,{0AFA6E62-E611-466B-A9EA-4FDD33A53527}
102.91480000007553,2.770999999759057,2385,WRI_1541,Unknown,Unknown,2.771,102.9148,MYS,None,Unknown,{950E7B9C-420F-46AA-855E-0CED4DA67789}
103.104999999636448,3.046400000190951,2386,WRI_1542,Unknown,Unknown,3.0464,103.105,MYS,None,Unknown,{0A251CA6-F647-4D92-8E0C-B37596E172FA}
101.474000000389495,2.921999999833775,2387,WRI_1544,Unknown,Unknown,2.922,101.474,MYS,None,Unknown,{028EC5F3-CEEC-4632-B1B3-E5CF1251FDFB}
-84.283900000258811,9.533699999603719,2388,WRI_1546,Unknown,Unknown,9.5337,-84.2839,CRI,None,Unknown,{BD813212-4F06-4CD9-AA6B-DA7E86DDFDE1}
-84.085900000052803,9.407099999738135,2389,WRI_1547,Unknown,Unknown,9.4071,-84.0859,CRI,None,Unknown,{8E3A6003-F7FD-42DF-8460-94A4FC19EA27}
111.13889999977944,1.078600000096557,2390,WRI_155,Tetangga Akrab Palm Oil Mill,Unknown,1.0786,111.1389,MYS,None,Unknown,{925F1748-CF10-49C1-846B-5BA58DD62488}
102.233000000280867,3.273399999664435,2391,WRI_1551,Unknown,Unknown,3.2734,102.233,MYS,None,Unknown,{1ABE3D86-35E4-409D-97AD-78B18251039F}
103.038200000399925,2.270899999618621,2392,WRI_1558,Unknown,Unknown,2.2709,103.0382,MYS,None,Unknown,{2A326FF5-F630-498E-8417-43CBD7766CCD}
-48.704899999664832,-2.542799999825614,2393,WRI_1559,Unknown,Unknown,-2.5428,-48.7049,BRA,None,Unknown,{E412A6F5-BE2A-481B-8CD7-8A0AB772A0E3}
113.630799999709737,3.794399999717706,2394,WRI_156,Seatex Development,Unknown,3.7944,113.6308,MYS,None,Unknown,{668059F1-74D6-49A9-A9D2-759B5B1564C2}
103.532799999983538,2.583300000222703,2395,WRI_1560,Unknown,Unknown,2.5833,103.5328,MYS,None,Unknown,{233DEBE6-81D7-4614-AD90-03F28E8C151A}
101.993699999803226,2.468500000081419,2396,WRI_1561,Unknown,Unknown,2.4685,101.9937,MYS,None,Unknown,{F3857C56-8219-4EFA-B2AB-02BE55FF8973}
103.214300000142146,4.604899999647333,2397,WRI_1566,Unknown,Unknown,4.6049,103.2143,MYS,None,Unknown,{91EA430B-2D52-482E-B3D8-D4283E7058A0}
111.320399999968274,1.623600000272077,2398,WRI_157,THP Saribas,Unknown,1.6236,111.3204,MYS,None,Unknown,{5DF1705E-C3F7-49EA-8216-59FC9E39F39B}
98.307199999887686,3.716899999583861,2399,WRI_1573,Unknown,Unknown,3.7169,98.3072,IDN,None,Unknown,{8147F17C-A4D6-41B6-BB94-28F295132850}
102.104700000000349,4.24069999975942,2400,WRI_1574,Unknown,Unknown,4.2407,102.1047,MYS,None,Unknown,{4DCA2CED-871F-49BA-88F4-C806E7563578}
97.369799999614727,4.93689999983342,2401,WRI_1578,Unknown,Unknown,4.9369,97.3698,IDN,None,Unknown,{76D105EB-D9E7-4074-9D02-AEAE9CA3EEB9}
110.822099999629515,1.115799999725991,2402,WRI_158,Masranti Plantation,Unknown,1.1158,110.8221,MYS,None,Unknown,{04FDC9E3-6038-4517-AE32-C70E8512842E}
100.730599999991711,5.153100000086311,2403,WRI_159,Malmaju Bina,Unknown,5.1531,100.7306,MYS,None,Unknown,{677038DE-33C5-4B8B-9277-A1FB25B80001}
99.618500000092311,2.695099999914467,2404,WRI_1590,Unknown,Unknown,2.6951,99.6185,IDN,None,Unknown,{E76DD748-EFAB-4568-AEFA-566C8F89B968}
99.349999999894649,3.033300000080745,2405,WRI_1591,Unknown,Unknown,3.0333,99.35,IDN,None,Unknown,{95ED4969-8A98-4D6F-8DFC-91AE80F5D5E8}
99.632700000368402,2.87400000016366,2406,WRI_1592,Unknown,Unknown,2.874,99.6327,IDN,None,Unknown,{740DCDAD-1FAF-4078-99AB-51439F7C1D4F}
99.216599999641517,2.965200000300087,2407,WRI_1593,Unknown,Unknown,2.9652,99.2166,IDN,None,Unknown,{A393FB6B-F3DB-41FB-BF05-A5F0C44E1C26}
98.94249999987899,3.522000000071987,2408,WRI_1596,Unknown,Unknown,3.522,98.9425,IDN,None,Unknown,{2E5FAAB7-526C-44F9-B82C-B55B90F0A0AD}
103.4798000000917,1.814299999975632,2409,WRI_16,Hadapan Palm Oil Mill,Unknown,1.8143,103.4798,MYS,None,Unknown,{925436C7-1532-4967-A699-E3500E38E335}
101.408099999879923,3.136099999787559,2410,WRI_1601,Unknown,Unknown,3.1361,101.4081,MYS,None,Unknown,{0FF9E3FE-B074-43E2-AC62-7797FF19C74F}
101.955100000204041,4.977899999818645,2411,WRI_161,Sungai Terah Palm Oil Mill,Unknown,4.9779,101.9551,MYS,None,Unknown,{33D10FF8-097D-4556-BB4A-8BF8840CFF01}
100.663599999840329,4.216199999994712,2412,WRI_1610,Unknown,Unknown,4.2162,100.6636,MYS,None,Unknown,{0C662194-DE88-4814-B1EE-E30F554656EA}
100.673399999752547,4.423199999638103,2413,WRI_1615,Unknown,Unknown,4.4232,100.6734,MYS,None,Unknown,{6539827E-3D02-4393-96CD-9852F359FCE9}
100.550699999935205,5.515600000330733,2414,WRI_162,Taclico Company,Unknown,5.5156,100.5507,MYS,None,Unknown,{F3C1B96D-38A0-49ED-8764-ECA8960EFFF9}
97.910400000307817,4.559600000431313,2415,WRI_1621,Unknown,Unknown,4.5596,97.9104,IDN,None,Unknown,{A0F8AE3F-F0F2-4E6F-9870-268623B6499B}
101.639399999695925,0.466100000424523,2416,WRI_1627,Unknown,Unknown,0.4661,101.6394,IDN,None,Unknown,{432F8BC5-57F6-48FF-9852-29454D7699EC}
100.46209999979402,5.201899999638576,2417,WRI_163,United Oil Palm Industries,Unknown,5.2019,100.4621,MYS,None,Unknown,{B8AB2654-D64E-4BA3-A212-9C8E3FF724B7}
100.109199999802527,2.351199999787188,2418,WRI_1630,Unknown,Unknown,2.3512,100.1092,IDN,None,Unknown,{7F0CF147-8DE2-45A9-AB53-0B7E2440B356}
99.656800000115823,2.82650000011841,2419,WRI_1631,Unknown,Unknown,2.8265,99.6568,IDN,None,Unknown,{4213883E-40FC-486F-9BDE-57D2E04FBBA2}
96.262199999638327,4.059999999676934,2420,WRI_1633,Unknown,Unknown,4.06,96.2622,IDN,None,Unknown,{FB22A086-2A17-4816-9E15-65BCD5B15C90}
101.991400000062157,0.150599999841872,2421,WRI_1634,Unknown,Unknown,0.1506,101.9914,IDN,None,Unknown,{C7BB8D96-43A6-43EC-BC65-7BFFFF48D01C}
99.556399999897025,3.148099999590422,2422,WRI_1635,Unknown,Unknown,3.1481,99.5564,IDN,None,Unknown,{6B75315C-C660-49D6-8148-34ECB8E3D731}
98.203200000269462,3.851600000182862,2423,WRI_1636,Unknown,Unknown,3.8516,98.2032,IDN,None,Unknown,{37715DBF-D124-4F56-BB45-62AB6E5C97FB}
100.391900000276323,5.416800000290766,2424,WRI_164,Wilmar Edible Oils,Unknown,5.4168,100.3919,MYS,None,Unknown,{39DA9DF3-C154-45C1-A2FC-403765BE80D6}
101.422599999731702,0.321300000425768,2425,WRI_1643,Unknown,Unknown,0.3213,101.4226,IDN,None,Unknown,{59AD9F12-0760-412C-8772-6A142211FE79}
101.547499999730988,0.496600000158428,2426,WRI_1644,Unknown,Unknown,0.4966,101.5475,IDN,None,Unknown,{9DDAF64E-ED59-426E-832E-CCE34D45EE00}
101.003299999638458,0.423400000197075,2427,WRI_1646,Unknown,Unknown,0.4234,101.0033,IDN,None,Unknown,{8D19140C-D56A-4110-823A-61DB0EE33673}
96.089100000144228,4.475299999685269,2428,WRI_1649,Unknown,Unknown,4.4753,96.0891,IDN,None,Unknown,{3FA5A366-6F0E-4D9B-B560-EA71E109520E}
99.216799999658065,2.999500000135643,2429,WRI_165,Bakrie Sumatera Plantations,Unknown,2.9995,99.2168,IDN,None,Unknown,{1AE852B4-3B0C-4E03-AC1B-894356829B2E}
99.522900000270511,2.877500000251543,2430,WRI_1650,Unknown,Unknown,2.8775,99.5229,IDN,None,Unknown,{C80AEC68-D709-47B0-A3FF-28EE82CBBF0D}
98.099500000226911,4.324999999877394,2431,WRI_1654,Unknown,Unknown,4.325,98.0995,IDN,None,Unknown,{EC765BB0-4BBF-43D0-8CEF-48F5EA10F928}
111.045999999731805,-2.481500000010739,2432,WRI_1658,Unknown,Unknown,-2.4815,111.046,IDN,None,Unknown,{C9D252F5-093D-46B9-A9C4-7565FCDC43D6}
99.8124999999675,1.118699999649598,2433,WRI_1660,Unknown,Unknown,1.1187,99.8125,IDN,None,Unknown,{64C5EC60-45F1-4BEA-8BD4-85D74C881E3A}
100.642199999867088,1.134600000031896,2434,WRI_1662,Unknown,Unknown,1.1346,100.6422,IDN,None,Unknown,{840471AC-A2E0-420A-8337-DE9843287742}
98.016499999650563,2.644999999600612,2435,WRI_1663,Unknown,Unknown,2.645,98.0165,IDN,None,Unknown,{1E40AD39-A9F7-4542-B461-5C4910E8A1B0}
98.374600000072135,3.965699999936976,2436,WRI_1665,Unknown,Unknown,3.9657,98.3746,IDN,None,Unknown,{8A1B8521-E4C6-4EF5-A873-0C0BE73214D2}
96.53559999979214,4.002600000423593,2437,WRI_1667,Unknown,Unknown,4.0026,96.5356,IDN,None,Unknown,{559A5A04-9B70-4288-A319-AA599E737F99}
97.872199999843431,2.358900000052219,2438,WRI_1668,Unknown,Unknown,2.3589,97.8722,IDN,None,Unknown,{A7F55B22-7F76-4C04-A383-13C490CBD756}
100.140700000161956,2.285999999847023,2439,WRI_167,Daya Labuhan Indah,Unknown,2.286,100.1407,IDN,None,Unknown,{E6190C72-A4C3-48D2-BC2F-AD87CC7B2A92}
101.139100000090039,-2.433499999952596,2440,WRI_1670,Unknown,Unknown,-2.4335,101.1391,IDN,None,Unknown,{23B4DC98-560B-40FE-8F6F-2C9D381C2FB2}
103.798400000390515,-1.608900000353872,2441,WRI_1671,Unknown,Unknown,-1.6089,103.7984,IDN,None,Unknown,{C6EF6A70-2B98-400D-B8B3-F7E817D93B67}
105.852500000044998,-1.931400000428429,2442,WRI_1672,Unknown,Unknown,-1.9314,105.8525,IDN,None,Unknown,{3711D232-D608-495D-95F6-AFFEE048EB51}
105.184400000035879,-3.977300000206385,2443,WRI_1676,Unknown,Unknown,-3.9773,105.1844,IDN,None,Unknown,{284772A2-9C50-4B9C-BE2C-FB80E00F5F0D}
112.292800000440977,-2.148300000114578,2444,WRI_1679,Unknown,Unknown,-2.1483,112.2928,IDN,None,Unknown,{9200B325-C364-4696-A8E2-8275B055CF7A}
100.186599999915728,1.900599999711831,2445,WRI_168,Asam Jawa,Unknown,1.9006,100.1866,IDN,None,Unknown,{74C32881-B598-4AAA-AF34-8AAFD3945AC0}
102.999999999935511,1.999999999950246,2446,WRI_1681,Unknown,Unknown,2,103,MYS,None,Unknown,{2CBA34DE-C6CA-457E-BB8B-62C9CCD07431}
102.999999999935511,2.999999999982409,2447,WRI_1684,Unknown,Unknown,3,103,MYS,None,Unknown,{FE100E68-4AE4-4901-BDC9-832B3AA01D69}
102.943599999762498,2.980100000187277,2448,WRI_1685,Unknown,Unknown,2.9801,102.9436,MYS,None,Unknown,{A8173ECD-A91C-40C4-BF41-4F8575400447}
103.016699999969234,2.394999999950285,2449,WRI_1688,Unknown,Unknown,2.395,103.0167,MYS,None,Unknown,{347D4EF9-9244-475B-99F4-9A8B823D6456}
103.358700000406728,1.9344000004408,2450,WRI_1689,Unknown,Unknown,1.9344,103.3587,MYS,None,Unknown,{2C3EBB1F-408B-4AFA-B952-95F7CFAB342E}
100.025400000058326,1.812200000384235,2451,WRI_169,Kuala Mas Sawit Abadi,Unknown,1.8122,100.0254,IDN,None,Unknown,{201F7F8A-6358-4BD3-8486-1A6D75882E3B}
100.999999999814648,4.000000000394076,2452,WRI_1690,Unknown,Unknown,4,101,MYS,None,Unknown,{C40AF50E-F59B-4A75-A03C-8559083C354D}
103.603700000008288,1.651799999553595,2453,WRI_1691,Unknown,Unknown,1.6518,103.6037,MYS,None,Unknown,{0F9AB98F-A592-4EEE-822B-978253220FB2}
102.438099999726575,3.974300000274368,2454,WRI_1695,Unknown,Unknown,3.9743,102.4381,MYS,None,Unknown,{429BDCA0-1380-4477-AA35-B2E88572436C}
101.999999999875087,5.000000000227506,2455,WRI_1696,Unknown,Unknown,5,102,MYS,None,Unknown,{97FE6D5A-2A55-43A5-AD15-35808F57F8F6}
100.786000000082012,4.478999999659608,2456,WRI_1697,Unknown,Unknown,4.479,100.786,MYS,None,Unknown,{89112EE3-770A-4CBA-B41D-49D5682AE55A}
100.687600000028652,5.167700000093723,2457,WRI_1698,Unknown,Unknown,5.1677,100.6876,MYS,None,Unknown,{8BDCC2B3-DAEF-4236-8629-E92F061D480D}
99.784399999889274,2.58449999982381,2458,WRI_170,Graha Dura Leidong Prima,Unknown,2.5845,99.7844,IDN,None,Unknown,{011E0746-5952-4A50-A56B-285FA192D4BE}
100.478300000235535,5.167900000394885,2459,WRI_1700,Unknown,Unknown,5.1679,100.4783,MYS,None,Unknown,{8430BBED-DE8B-430C-96D5-7EFB874FBB72}
101.054999999871882,3.993199999858364,2460,WRI_1701,Unknown,Unknown,3.9932,101.055,MYS,None,Unknown,{1D860677-A1A4-4F8D-B8B7-C7BF63590F44}
100.905600000092136,4.35019999977007,2461,WRI_1702,Unknown,Unknown,4.3502,100.9056,MYS,None,Unknown,{F86AC0AF-A9DE-435C-8428-7E5010DFC387}
100.721099999655181,4.635400000169379,2462,WRI_1704,Unknown,Unknown,4.6354,100.7211,MYS,None,Unknown,{0D5F7229-0490-4D66-BF50-21F3F1FC86FC}
117.914800000083602,4.282499999640407,2463,WRI_1705,Unknown,Unknown,4.2825,117.9148,MYS,None,Unknown,{90654F29-7F96-468B-B40F-BEA6A5023C9F}
118.107500000300419,5.447499999637803,2464,WRI_1708,Unknown,Unknown,5.4475,118.1075,MYS,None,Unknown,{A746FCF1-0D5D-4B43-83D1-E62C3EBD2590}
118.359299999566062,5.048799999827096,2465,WRI_1711,Unknown,Unknown,5.0488,118.3593,MYS,None,Unknown,{CF5523D4-A420-4DFD-9153-598D728727A4}
116.72409999997177,6.828500000325465,2466,WRI_1712,Unknown,Unknown,6.8285,116.7241,MYS,None,Unknown,{A3650E0F-382B-4461-B4F0-EC4EAF5B4BCA}
117.437499999685002,5.716800000416074,2467,WRI_1716,Unknown,Unknown,5.7168,117.4375,MYS,None,Unknown,{971D1C9B-74E9-439C-91F3-4723138E5135}
116.985199999557423,5.260300000246156,2468,WRI_1717,Unknown,Unknown,5.2603,116.9852,MYS,None,Unknown,{4EC74DB8-FDB7-471B-9EAC-62BDB5AB1440}
118.531799999908856,4.436299999638986,2469,WRI_1718,Unknown,Unknown,4.4363,118.5318,MYS,None,Unknown,{D806C58C-FD36-4375-BBDB-4DB8E3AE00CA}
99.368599999636302,0.464300000318859,2470,WRI_172,Tri Bahtera Srikandi,Unknown,0.4643,99.3686,IDN,None,Unknown,{F92B1F85-E168-42BE-AB1B-B0D428F99EE1}
101.593000000349974,-0.275100000155564,2471,WRI_1725,Unknown,Unknown,-0.2751,101.593,IDN,None,Unknown,{F397261A-EA2B-4E60-9DE6-D8172044446D}
118.235100000073857,4.67679999997941,2472,WRI_1726,Unknown,Unknown,4.6768,118.2351,MYS,None,Unknown,{51AF81E7-F535-48CE-B903-947C1173215E}
151.007599999871218,-5.330499999603287,2473,WRI_1728,Unknown,Unknown,-5.3305,151.0076,PNG,None,Unknown,{6E2C50B0-92F3-4683-9A10-9C3A3E37B84A}
113.151500000044081,3.217999999951651,2474,WRI_1732,Unknown,Unknown,3.218,113.1515,MYS,None,Unknown,{631249D6-7BB7-4103-B6BC-9911911AC020}
111.578100000171048,1.37490000031802,2475,WRI_1737,Unknown,Unknown,1.3749,111.5781,MYS,None,Unknown,{1410D204-1362-4D81-85B8-18064F952AD6}
113.994899999729242,4.333100000223597,2476,WRI_1738,Unknown,Unknown,4.3331,113.9949,MYS,None,Unknown,{4EC9C818-EBB3-4558-B486-0E816206E55D}
110.497699999749315,1.442800000397304,2477,WRI_1740,Unknown,Unknown,1.4428,110.4977,MYS,None,Unknown,{D948CC63-9244-4B3D-AE41-0BF947CCEB00}
112.315700000089137,2.50269999972595,2478,WRI_1742,Unknown,Unknown,2.5027,112.3157,MYS,None,Unknown,{44FF5061-7D2F-42A8-8D7B-5095171335EA}
102.529799999674964,2.789799999638653,2479,WRI_1745,Unknown,Unknown,2.7898,102.5298,MYS,None,Unknown,{E55A62C1-CCF2-4F63-99BF-EF438CE7E846}
100.238300000149167,1.606100000259279,2480,WRI_175,Sibisa Mangatur,Unknown,1.6061,100.2383,IDN,None,Unknown,{B444E305-91EF-4956-93E2-F44E98331EDA}
102.199600000213408,5.533900000278554,2481,WRI_1757,Unknown,Unknown,5.5339,102.1996,MYS,None,Unknown,{4DE17DEA-EBC5-46E9-96F1-F2BB1AB1AF46}
102.425800000056782,2.304799999634778,2482,WRI_1758,Unknown,Unknown,2.3048,102.4258,MYS,None,Unknown,{623659DB-5B63-401A-B0FA-6C8B0836ABA0}
101.806800000066076,2.5364000004303,2483,WRI_1759,Unknown,Unknown,2.5364,101.8068,MYS,None,Unknown,{EC4B127C-95B4-42D5-A97F-7F6009950027}
100.191499999871795,1.159000000348837,2484,WRI_176,Rantau Kasai,Unknown,1.159,100.1915,IDN,None,Unknown,{DF1D2AFA-2F51-44AD-8EBA-6EC22486AF3C}
101.962899999950821,2.589000000110347,2485,WRI_1760,Unknown,Unknown,2.589,101.9629,MYS,None,Unknown,{00B3AF6C-B7C1-4D33-B5EF-A5A1D2D7D9C2}
102.544300000425039,3.741600000144486,2486,WRI_1761,Unknown,Unknown,3.7416,102.5443,MYS,None,Unknown,{6371F775-9ACA-4842-9C1D-23CFA17AB60C}
102.526400000292114,2.694500000256371,2487,WRI_1762,Unknown,Unknown,2.6945,102.5264,MYS,None,Unknown,{C0B1F354-E42D-4476-A5B5-3352CF6896EB}
102.379900000302996,3.946799999899356,2488,WRI_1768,Unknown,Unknown,3.9468,102.3799,MYS,None,Unknown,{E888857D-14FF-477A-AA93-4908B8A40E74}
99.406200000051086,9.10669999996921,2489,WRI_177,Saengsiri Agro-Industries Co. Ltd,Unknown,9.1067,99.4062,THA,None,Unknown,{872866E3-03F9-4637-8A4A-1405C6BFEC7B}
100.75030000027354,4.693499999728977,2490,WRI_1770,Unknown,Unknown,4.6935,100.7503,MYS,None,Unknown,{663C366F-0407-452D-B1F8-87C873509714}
100.574599999666063,5.01530000019658,2491,WRI_1771,Unknown,Unknown,5.0153,100.5746,MYS,None,Unknown,{257043FB-4FC2-4F83-A9BE-0DF4B2F92C30}
101.365800000423917,2.860499999625692,2492,WRI_1773,Unknown,Unknown,2.8605,101.3658,MYS,None,Unknown,{8253AA3F-7927-46BD-A5A0-3F2AFE1147DC}
101.412900000276906,3.37669999992757,2493,WRI_1774,Unknown,Unknown,3.3767,101.4129,MYS,None,Unknown,{E83B3975-B363-43A8-8B82-78E70FF90FDF}
101.677499999702889,2.864299999619649,2494,WRI_1776,Unknown,Unknown,2.8643,101.6775,MYS,None,Unknown,{37C906A1-10D2-4898-B346-5041F3C935AF}
99.857100000062871,9.012800000004582,2495,WRI_178,S.P.O Agro-Industries Co. Ltd,Unknown,9.0128,99.8571,THA,None,Unknown,{F2C26A5C-B211-4E76-B333-50C0964C0CF8}
103.390100000308735,3.50069999962498,2496,WRI_1780,Unknown,Unknown,3.5007,103.3901,MYS,None,Unknown,{EE7A1D64-6C64-4E10-AD92-8F26BE50BBC9}
102.379100000236846,3.139600000336634,2497,WRI_1781,Unknown,Unknown,3.1396,102.3791,MYS,None,Unknown,{01601C24-66D4-4D0F-9E65-1452A02896EA}
102.454799999760283,3.264099999932754,2498,WRI_1782,Unknown,Unknown,3.2641,102.4548,MYS,None,Unknown,{EA7EDB91-307D-4D85-A8B4-9CCE06442B08}
101.071200000313425,3.913899999809116,2499,WRI_1783,Unknown,Unknown,3.9139,101.0712,MYS,None,Unknown,{AD188A3C-F1D3-4B8D-9D7A-CFDE8BB78F62}
101.018000000405038,4.012399999769134,2500,WRI_1785,Unknown,Unknown,4.0124,101.018,MYS,None,Unknown,{2D1B421F-681C-475D-8573-FACF03DADAD3}
101.504200000192242,2.809499999758836,2501,WRI_1786,Unknown,Unknown,2.8095,101.5042,MYS,None,Unknown,{0557AA45-4858-41EA-A9C0-E914A742DE56}
101.25799999959311,3.33500000028505,2502,WRI_1787,Unknown,Unknown,3.335,101.258,MYS,None,Unknown,{AE655108-E544-4074-8792-D691AE385898}
110.49050000005218,1.454999999959402,2503,WRI_1789,Unknown,Unknown,1.455,110.4905,MYS,None,Unknown,{6C1F3EBF-2A3F-466D-8A58-E9ADC2E075AC}
102.986700000183021,2.455099999653308,2504,WRI_18,Stable Win,Unknown,2.4551,102.9867,MYS,None,Unknown,{D86D045A-8607-45DE-B4BE-C5AD3FCFE203}
103.217300000390267,1.98080000039921,2505,WRI_180,Genting Oil Mill,Unknown,1.9808,103.2173,MYS,None,Unknown,{CFF29191-BB7F-4F48-903B-F16B7F7296BC}
102.399999999719611,2.733300000255593,2506,WRI_181,Jeram Padang Mill,Unknown,2.7333,102.4,MYS,None,Unknown,{575D607F-9F2E-49EF-9895-5876B167A813}
-3.199999999654354,5.46670000041189,2507,WRI_1815,Unknown,Unknown,5.4667,-3.2,CIV,None,Unknown,{FB3625BA-E14F-4FD7-8D65-1B9AAEFC472F}
102.349699999601938,3.179800000069009,2508,WRI_1819,Unknown,Unknown,3.1798,102.3497,MYS,None,Unknown,{3178066D-A18C-462C-BC15-12FC65EE8EF3}
101.203099999993299,0.757200000437123,2509,WRI_182,Sekarbumi Alamlestari Mill,Unknown,0.7572,101.2031,IDN,None,Unknown,{C384C8E7-7423-4628-87B8-F1A736828823}
101.779599999613112,0.629900000028483,2510,WRI_1825,Unknown,Unknown,0.6299,101.7796,IDN,None,Unknown,{84FE67F5-3768-43AF-9210-38781F85CCF2}
101.376099999928314,3.133400000098399,2511,WRI_1827,Unknown,Unknown,3.1334,101.3761,MYS,None,Unknown,{646CD01F-4B7D-45CB-A948-DEBA90BA6CD7}
-72.840400000194364,4.492399999565307,2512,WRI_1830,Unknown,Unknown,4.4924,-72.8404,COL,None,Unknown,{CAFECE9C-ED19-4847-85F8-2635BE7C1BFC}
111.463699999692707,1.233599999621258,2513,WRI_186,Sarawak  Land Consolidation & Rehabilitation Authorithy (Lubok Antu Mill),Unknown,1.2336,111.4637,MYS,None,Unknown,{CB1D53EF-561D-4191-957C-152D2A29ABF6}
102.874499999886623,1.957299999775609,2514,WRI_1862,Unknown,Unknown,1.9573,102.8745,MYS,None,Unknown,{F0407184-A855-4AED-AD98-E8066220AA7A}
102.899999999749824,1.900000000136429,2515,WRI_1866,Unknown,Unknown,1.9,102.9,MYS,None,Unknown,{DB2C368D-5514-488A-AC62-9AAC2A566668}
103.510300000368417,2.18259999990567,2516,WRI_1867,Unknown,Unknown,2.1826,103.5103,MYS,None,Unknown,{3479E810-03BE-448F-A32A-F18B6E43D6A5}
102.630199999893762,2.109899999810319,2517,WRI_1868,Unknown,Unknown,2.1099,102.6302,MYS,None,Unknown,{DCCEE1B0-F65E-4891-9505-2022559A46E9}
103.521300000379881,1.514399999905552,2518,WRI_1869,Unknown,Unknown,1.5144,103.5213,MYS,None,Unknown,{C47105F4-2884-4822-928F-22155E3C3201}
101.44760000000268,1.66569999958432,2519,WRI_187,Sei Lilin,Unknown,1.6657,101.4476,IDN,None,Unknown,{E222AD97-B7B8-464D-8ED6-D56121BB764F}
103.247599999752126,4.137299999773603,2520,WRI_1871,Unknown,Unknown,4.1373,103.2476,MYS,None,Unknown,{9A667A09-1F8A-4D83-891B-43975C91423F}
100.691499999902021,4.381000000268011,2521,WRI_1873,Unknown,Unknown,4.381,100.6915,MYS,None,Unknown,{5497683A-3653-4E31-B107-0A66E79A4014}
101.139199999649165,4.322700000108661,2522,WRI_1874,Unknown,Unknown,4.3227,101.1392,MYS,None,Unknown,{9411F937-6891-457D-9323-808FEA68D931}
117.896499999917552,5.327999999783434,2523,WRI_1875,Unknown,Unknown,5.328,117.8965,MYS,None,Unknown,{15F8C771-91A7-4BC0-B480-7CB00BA9059E}
100.574599999666063,5.426600000333853,2524,WRI_1883,Unknown,Unknown,5.4266,100.5746,MYS,None,Unknown,{53EAA81A-41FF-4077-A8C0-53E2B64D8B6F}
98.184599999629469,4.360700000101921,2525,WRI_1884,Unknown,Unknown,4.3607,98.1846,IDN,None,Unknown,{C3170B7F-53D6-4EF0-8108-FE42DC470597}
98.036999999998571,2.251899999840864,2526,WRI_1895,Unknown,Unknown,2.2519,98.037,IDN,None,Unknown,{EEA72504-A55F-4E4B-A876-3171B4AD3534}
99.61179999998734,2.981999999883719,2527,WRI_1909,Unknown,Unknown,2.982,99.6118,IDN,None,Unknown,{F1851EB8-3C8C-4484-B22A-BBD8B289EFFE}
103.385400000369174,4.29930000043807,2528,WRI_191,Kilang Kelapa Sawit Kemaman,Unknown,4.2993,103.3854,MYS,None,Unknown,{D2442CA7-5F43-497E-A2DB-644277C2D03A}
102.47579999970047,2.50309999958377,2529,WRI_1917,Unknown,Unknown,2.5031,102.4758,MYS,None,Unknown,{A809C8DB-5355-4963-8690-B68555003E58}
103.192700000152342,2.202000000156036,2530,WRI_1918,Unknown,Unknown,2.202,103.1927,MYS,None,Unknown,{6460CDE1-E6AC-4A74-A92F-BBF7AF474B59}
100.686100000353733,4.388599999686212,2531,WRI_1920,Unknown,Unknown,4.3886,100.6861,MYS,None,Unknown,{7ED07BD9-48CD-42E3-B9D0-FBF7A5C70299}
116.135899999833441,-2.138099999563208,2532,WRI_1924,Unknown,Unknown,-2.1381,116.1359,IDN,None,Unknown,{242D9FFB-F270-417F-8387-DDE93ADB9D65}
103.75469999992039,1.463400000333686,2533,WRI_193,Kilang Kelapa Sawit Sedenak,Unknown,1.4634,103.7547,MYS,None,Unknown,{A1168F6E-0191-47A8-82B6-1A440850F38F}
131.561400000447577,-1.075600000021134,2534,WRI_1934,Unknown,Unknown,-1.0756,131.5614,IDN,None,Unknown,{556EECFE-6461-449D-B8E4-69189BCC691A}
103.324799999848778,3.80219999982483,2535,WRI_194,Sri Jelutung Palm Oil Mill,Unknown,3.8022,103.3248,MYS,None,Unknown,{570F6D7B-7DAE-44CB-A575-EEA31F198639}
111.27530000028068,-2.339400000000497,2536,WRI_1940,Unknown,Unknown,-2.3394,111.2753,IDN,None,Unknown,{4BC8A427-B3FE-45F3-9DF0-0A19BB562242}
107.985100000352816,-2.69839999992389,2537,WRI_1942,Unknown,Unknown,-2.6984,107.9851,IDN,None,Unknown,{B2D07125-94BA-4752-9389-5F38F77F3F9D}
100.94690000036374,4.173300000004621,2538,WRI_195,Kilang Kelapa Sawit Felcra Seberang Perak,Unknown,4.1733,100.9469,MYS,None,Unknown,{A1EA4DE0-6D32-48F1-A3FF-6FECCC1285F6}
100.598900000328356,1.475900000163538,2539,WRI_1950,Unknown,Unknown,1.4759,100.5989,IDN,None,Unknown,{87EE1782-94C4-41CB-A67F-AB21EE690B67}
100.9280999997072,0.707800000001142,2540,WRI_1955,Unknown,Unknown,0.7078,100.9281,IDN,None,Unknown,{301D624F-0654-4FD6-BE5D-E75324E58C23}
101.787299999800808,2.996200000438284,2541,WRI_196,Kilang Kelapa Sawit Lima Blas,Unknown,2.9962,101.7873,MYS,None,Unknown,{0E901E6A-7128-4B57-B1C3-180B387BF802}
115.924100000282735,4.987199999892286,2542,WRI_1960,Unknown,Unknown,4.9872,115.9241,MYS,None,Unknown,{38AC9B50-57D9-444A-B143-DD10BEC504BB}
97.852100000426816,4.725199999954837,2543,WRI_1965,Unknown,Unknown,4.7252,97.8521,IDN,None,Unknown,{144D990E-2F07-4C1D-8014-B5CA6FD74576}
98.873499999562213,3.412400000370003,2544,WRI_1968,Unknown,Unknown,3.4124,98.8735,IDN,None,Unknown,{F2C2A3C2-98EA-4E2E-B482-DCB492428806}
100.075100000126369,2.236699999617512,2545,WRI_1969,Unknown,Unknown,2.2367,100.0751,IDN,None,Unknown,{F3A1A641-A954-405E-9473-FFC64D5B9376}
101.255800000309463,3.724400000364495,2546,WRI_197,Kilang Kelapa Sawit Ulu Basir,Unknown,3.7244,101.2558,MYS,None,Unknown,{92FE8CDD-D2A9-4B50-907C-2BE97A384907}
100.09000000001123,1.399999999701233,2547,WRI_1970,Unknown,Unknown,1.4,100.09,IDN,None,Unknown,{3088DDB8-C82D-4410-8E57-59C303B3212A}
100.083899999955875,2.241100000052504,2548,WRI_1972,Unknown,Unknown,2.2411,100.0839,IDN,None,Unknown,{D73453DF-C3AF-46FA-BAEB-42EB3C4BC0DC}
116.478399999863129,-2.442399999695519,2549,WRI_1979,Unknown,Unknown,-2.4424,116.4784,IDN,None,Unknown,{813D5344-0C8C-4487-86A6-77DA4D8A753B}
100.628399999624037,5.193599999561319,2550,WRI_198,Kilang Kelapa Sawit Batu Lintang,Unknown,5.1936,100.6284,MYS,RSPO Certified,Unknown,{335549A1-268F-422A-BD31-3E8582D39343}
111.236800000240621,-2.626799999918369,2551,WRI_1983,Unknown,Unknown,-2.6268,111.2368,IDN,None,Unknown,{CD9FDF06-EA7C-416B-BA06-EF84F6679816}
111.850999999834343,1.097199999802073,2552,WRI_1984,Unknown,Unknown,1.0972,111.851,MYS,None,Unknown,{BB2C27F3-3153-46FC-8C27-334F339B5034}
103.24000000002188,3.569999999638925,2553,WRI_1986,Unknown,Unknown,3.57,103.24,MYS,None,Unknown,{81A8A971-6D86-4E2D-B47A-8BC0C858AD3E}
110.479599999599841,-1.382700000267286,2554,WRI_1988,Unknown,Unknown,-1.3827,110.4796,IDN,None,Unknown,{0BDE1C19-5603-4EE2-A533-92689670C8B1}
101.244299999807509,0.055899999797366,2555,WRI_1989,Unknown,Unknown,0.0559,101.2443,IDN,None,Unknown,{CE770949-C90F-437A-A9AB-73398FCC600F}
100.629399999706749,5.504399999756288,2556,WRI_199,Kilang Kelapa Sawit Sungai Dingin,Unknown,5.5044,100.6294,MYS,None,Unknown,{D10402FF-F310-4443-96F7-891435214D6C}
103.142000000001573,3.15129999959492,2557,WRI_1996,Unknown,Unknown,3.1513,103.142,MYS,None,Unknown,{05159BD1-E7A7-4FD9-B957-0EFC62BDD065}
103.623899999882326,1.802400000066119,2558,WRI_20,Revenue Direction Palm Oil Mill,Unknown,1.8024,103.6239,MYS,None,Unknown,{1D5FF309-CA75-4C86-BCCE-B8EE39846865}
103.856399999797546,-1.485999999810687,2559,WRI_2004,Unknown,Unknown,-1.486,103.8564,IDN,None,Unknown,{546BD705-54E1-4B49-AD74-573FBF868A44}
111.999999999581036,1.999999999950246,2560,WRI_201,Boustead Pelita Kanowit Oil Mill,Unknown,2,112,MYS,None,Unknown,{9EEE301D-5971-4335-9DC4-3F5B8B09EFE0}
103.145099999808807,-1.293400000428184,2561,WRI_2011,Unknown,Unknown,-1.2934,103.1451,IDN,None,Unknown,{6EBC2085-0A1B-42B3-9399-781D8C97CD8A}
112.67300000044456,-2.025300000429977,2562,WRI_2019,Unknown,Unknown,-2.0253,112.673,IDN,None,Unknown,{7B372664-31DE-452C-9F8A-04AF393E07BF}
105.438400000381833,-4.127599999927991,2563,WRI_2025,Unknown,Unknown,-4.1276,105.4384,IDN,None,Unknown,{111E1724-106F-4D39-A136-E838F5D1757B}
118.200000000314972,4.704200000034418,2564,WRI_2036,Unknown,Unknown,4.7042,118.2,MYS,None,Unknown,{2D7864CC-3397-4378-8A50-491CEF8784FD}
100.254400000133273,1.961200000077826,2565,WRI_2038,Unknown,Unknown,1.9612,100.2544,IDN,None,Unknown,{1A1E57BC-5848-4FEC-BBBB-F8504117CA96}
99.733499999721957,2.322300000289284,2566,WRI_2039,Unknown,Unknown,2.3223,99.7335,IDN,None,Unknown,{D3E973CE-A16F-407E-BF44-E077B99E4D0F}
101.674100000319996,3.192300000398132,2567,WRI_204,K.K.S Ulu Sembol,Unknown,3.1923,101.6741,MYS,None,Unknown,{BD27A586-7C47-4FE6-B085-85C52BBB2EAD}
112.00769999976869,-2.443000000231245,2568,WRI_2040,Unknown,Unknown,-2.443,112.0077,IDN,None,Unknown,{B151130C-AF62-41D4-B6E7-37F6AA7B63E8}
102.697499999620788,2.084899999708556,2569,WRI_2043,Unknown,Unknown,2.0849,102.6975,MYS,None,Unknown,{1BEFAA7B-AA28-417B-AB7B-74CEB2819CA7}
110.51630000038935,-2.141400000073467,2570,WRI_2044,Unknown,Unknown,-2.1414,110.5163,IDN,None,Unknown,{4951A671-46E9-4CB3-A116-260286F11FB5}
-82.788699999666846,8.424599999826921,2571,WRI_2051,Unknown,Unknown,8.4246,-82.7887,PAN,None,Unknown,{EB953146-CDD0-40AD-A9F3-02FEE2307CEE}
-73.047499999805495,4.296599999957702,2572,WRI_2055,Unknown,Unknown,4.2966,-73.0475,COL,None,Unknown,{1F745598-0807-4A86-B0A6-AB0B9E54A8DF}
103.858599999979489,1.693900000433698,2573,WRI_206,K.K.S Tai Tak,Unknown,1.6939,103.8586,MYS,None,Unknown,{2A8DF6D5-53DC-49EE-AE10-D5A562BA62A4}
99.330686000300489,8.000322000257116,2574,WRI_2063,Lamthap Mill,Univanich Palm Oil Public Company Limited,8.000322,99.330686,THA,RSPO Certified,Univanich Palm Oil Public Company Limited,{3318DDE5-A59E-43D2-9752-3D82E3758F55}
98.729131000158119,8.385822000010121,2575,WRI_2065,Siam Mill,Univanich Palm Oil Public Company Limited,8.385822,98.729131,THA,RSPO Certified,Univanich Palm Oil Public Company Limited,{62680EAB-9355-420A-999D-F1CD6C888AFC}
98.920750999926256,8.578792000319513,2576,WRI_2069,Topi Mill,Univanich Palm Oil Public Company Limited,8.578792,98.920751,THA,RSPO Certified,Univanich Palm Oil Public Company Limited,{066E5406-2AF7-4FF2-A0C0-5352C96B55FD}
101.975799999670258,4.079299999672485,2577,WRI_207,KKS Adela,Unknown,4.0793,101.9758,MYS,None,Unknown,{FD707987-FFC7-45CB-AF76-568130BD2A77}
102.504166999742409,2.784666999803593,2578,WRI_2070,SOU 16 Kok Foh POM,Unknown,2.784667,102.504167,MYS,None,Sime Darby Plantation Sdn Bhd,{902C3E5D-103D-411C-8A54-74C4548B6F9E}
99.034998000243732,8.055851999720714,2579,WRI_2072,Krabinoi Mill,United Palm Oil Industry Public Company Limited (UPOIC),8.055852,99.034998,THA,RSPO Certified,United Palm Oil Industry Public Company Limited (UPOIC),{35CDE75A-C3FB-4C81-8F0C-6DED38639E66}
100.173249999934498,1.703472000079574,2580,WRI_2074,Aek Raso Palm Oil Mill,Unknown,1.703472,100.17325,IDN,None,PT Perkebunan Nusantara III,{5F30E810-08D2-469A-A5E8-1536599F7763}
99.616667000331475,2.83333299988891,2581,WRI_2075,Air Batu POM,PT Perkebunan Nusantara IV (PERSERO),2.833333,99.616667,IDN,RSPO Certified,PT Perkebunan Nusantara IV (PERSERO),{C973A94E-F483-44EC-A0D4-B118399767FA}
111.614805999910033,-2.305555999693262,2582,WRI_2077,Sulung POM,Unknown,-2.305556,111.614806,IDN,None,PT Sawit Sumbermas Sarana,{02E19FB7-811C-4C63-B07D-9FCA52F6BB50}
100.590610999961712,1.660221999696434,2583,WRI_2078,Kayangan and Kencana POM,Unknown,1.660222,100.590611,IDN,None,PT Salim Ivomas Pratama Tbk,{73AA798B-5127-4D1B-A3D0-55E1ECF8BE07}
98.947221999559858,3.593332999798039,2584,WRI_2079,Adolina POM,PT Perkebunan Nusantara IV (PERSERO),3.593333,98.947222,IDN,RSPO Certified,PT Perkebunan Nusantara IV (PERSERO),{FBC5E9E5-9DFF-42F8-B575-5406ADA236B6}
100.700611000076165,4.27436099994212,2585,WRI_2080,Changkat Chermin,Kuala Lumpur Kepong Berhad,4.274361,100.700611,MYS,RSPO Certified,Kuala Lumpur Kepong Berhad,{C97C7649-7ACD-472B-B49B-6A788016C283}
101.463279000037289,3.265156000271448,2586,WRI_2081,Tuan Mee POM,Unknown,3.265156,101.463279,MYS,None,Kuala Lumpur Kepong Berhad,{03F4F945-0772-4026-92FE-ABC846961A1E}
103.468711000391806,1.780617000323921,2587,WRI_2082,SOU 24 Hadapan Oil Mill,Unknown,1.780617,103.468711,MYS,None,Sime Darby Plantation Sdn Bhd,{F044AA9A-8AF6-4526-BDE6-A8BC0D207CE8}
102.996577000088109,2.178013000232458,2588,WRI_2083,SOU 20 Chaah,Sime Darby Plantation Sdn Bhd,2.178013,102.996577,MYS,RSPO Certified,Sime Darby Plantation Sdn Bhd,{B6D4CB8B-59A6-4036-A9AA-A9DEAB05A4CE}
101.485750000238383,3.694999999620508,2589,WRI_2084,Tanjong Malim POM,Unknown,3.695,101.48575,MYS,None,Kuala Lumpur Kepong Berhad,{2444D7FD-9923-459F-AE23-A420FA7F96EF}
150.086927000294452,-5.484085000133122,2590,WRI_2085,Waraston,New Britain Palm Oil Ltd,-5.484085,150.086927,PNG,RSPO Certified,New Britain Palm Oil Ltd,{288C3F34-1FEE-41E6-A300-C86884FA99C5}
116.149999999652124,-3.500000000410684,2591,WRI_2088,PT Bersama Sejahtera Sakti-Gunung Aru POM,Sime Darby Plantation Sdn Bhd,-3.5,116.15,IDN,RSPO Certified,Sime Darby Plantation Sdn Bhd,{E9AFB07D-738E-4568-ACC5-508F93B07927}
100.070169000208153,2.317250000362519,2592,WRI_2089,Negeri Lama Mill,Socfin Group (PT Socfindo and Socfinco SA),2.31725,100.070169,IDN,RSPO Certified,Socfin Group (PT Socfindo and Socfinco SA),{4E8287B9-D654-4F89-889C-BE3EC13BA929}
103.644499999789417,1.730999999695295,2593,WRI_209,KKS Kulai,Unknown,1.731,103.6445,MYS,None,Unknown,{838D05EB-C776-4EF9-B2A8-A27E482BC14C}
99.955278000358405,2.058055999795233,2594,WRI_2090,Aek Nabara Selatan Palm Oil Mill,PT Perkebunan Nusantara III,2.058056,99.955278,IDN,RSPO Certified,PT Perkebunan Nusantara III,{029548C0-DD16-424D-B7CD-55D02415943D}
99.573889000126272,2.701111000170123,2595,WRI_2091,Gunung Melayu,PT PP London Sumatra Indonesia Tbk,2.701111,99.573889,IDN,RSPO Certified,PT PP London Sumatra Indonesia Tbk,{1DB48664-BB9C-49E2-814B-AAAEE24A5F26}
98.267777999582705,3.478055999700453,2596,WRI_2092,Turangie,Unknown,3.478056,98.267778,IDN,None,PT PP London Sumatra Indonesia Tbk,{8C8FB04B-9A1F-4A49-8281-A4827C136BE2}
-3.528199999848837,5.281733000126088,2597,WRI_2094,Usine SAMO POM,SARL AGRIVAR: Agro Industrie VariÈe,5.281733,-3.5282,CIV,RSPO Certified,SARL AGRIVAR: Agro Industrie Vari??e,{2D4189B6-F780-4CEE-9280-ACB4E858E80A}
117.092818999739947,5.688882999599135,2598,WRI_2095,Ribubonus POM,PPB Oil Palms Berhad,5.688883,117.092819,MYS,RSPO Certified,PPB Oil Palms Berhad,{5D65B9D8-A356-4EFB-8AB3-E354CDB39BA4}
101.824999999774676,0.434444000123279,2599,WRI_2099,Buatan I POM,Unknown,0.434444,101.825,IDN,None,PT Inti Indosawit Subur,{71252261-0518-4149-9FC3-56FB413BD3FA}
102.730299999638575,2.488600000264618,2600,WRI_21,Chin Teck Plantations,Unknown,2.4886,102.7303,MYS,None,Unknown,{4329D068-A96D-4F68-90C8-166409BCD368}
101.868889000390695,0.456666999571679,2601,WRI_2100,Buatan II POM,PT Inti Indosawit Subur,0.456667,101.868889,IDN,RSPO Certified,PT Inti Indosawit Subur,{FE301F41-F750-4C4C-9F53-6591AED29ECC}
110.81751100001803,-2.433267000412588,2602,WRI_2101,Paku Juang Mill,Cargill Incorporated,-2.433267,110.817511,IDN,RSPO Certified,Cargill Incorporated,{643CD522-5231-4F0F-9562-00CE949B9D03}
116.266417000014329,0.265332999791982,2603,WRI_2104,Cakara POM,R.E.A. Holdings Plc,0.265333,116.266417,IDN,RSPO Certified,R.E.A. Holdings Plc,{F62B165B-9261-4F13-B5C7-F9F8B930F3A5}
111.01799699973796,-2.483052999653151,2604,WRI_2105,Manis Mata Mill,Unknown,-2.483053,111.017997,IDN,None,Cargill Incorporated,{3FE4C875-753E-4209-B727-D38CEAC1CBE6}
99.839444000327433,2.319166999868984,2605,WRI_2106,Padang Halaban Mill,Unknown,2.319167,99.839444,IDN,None,PT Smart Tbk,{D4346782-41D0-4E79-8DE3-C38B4DAFDB43}
116.150138999569293,0.257500000223615,2606,WRI_2108,Perdana POM,R.E.A. Holdings Plc,0.2575,116.150139,IDN,RSPO Certified,R.E.A. Holdings Plc,{CAADF48D-7A6C-4A7E-AFF3-9FFCC6BBFCA5}
112.539722000390171,-2.381111000143629,2607,WRI_2109,PKS Sukajadi Sawit Mekar 1,PT Agrowiratama,-2.381111,112.539722,IDN,RSPO Certified,PT Agrowiratama,{754E7A4A-74B5-4D2D-9763-E52EE9101361}
103.640100000323827,1.826900000097332,2608,WRI_211,KKS Penggeli,Unknown,1.8269,103.6401,MYS,RSPO Certified,Unknown,{996E1F8F-0C92-4802-8079-B5D683B8EB80}
112.602610999882629,-2.370249999591618,2609,WRI_2110,PKS Sukajadi Sawit Mekar 2,PT Agrowiratama,-2.37025,112.602611,IDN,RSPO Certified,PT Agrowiratama,{5668B32A-F892-42C4-95EC-459311BECD9F}
103.748138999732603,-2.350693999898619,2610,WRI_2111,PT Berkat Sawit Sejati POM,PT Berkat Sawit Sejati,-2.350694,103.748139,IDN,RSPO Certified,PT Berkat Sawit Sejati,{B0ED1C36-6C87-4AEF-B7F0-1229EEF70522}
112.647611000011111,-2.478166999575666,2611,WRI_2112,PT MAJU ANEKA SAWIT & GAP POM,PT Agrowiratama,-2.478167,112.647611,IDN,RSPO Certified,PT Agrowiratama,{91F7DEA5-3794-4A06-A81C-968DDC291924}
112.598830999659839,-1.595843999746644,2612,WRI_2113,PT. Unggul Lestari,PT. Unggul Lestari,-1.595844,112.598831,IDN,RSPO Certified,PT. Unggul Lestari,{386F2638-919F-4FEE-9343-6C572BBF135C}
160.218450000111716,-9.443133000181401,2613,WRI_2116,Tetere Mill,Unknown,-9.443133,160.21845,SLB,None,New Britain Palm Oil Ltd,{ECF0DD54-714A-4ACA-BD73-5302AACA0BBD}
151.010971899952011,-5.311114879776491,2614,WRI_2117,Hargy Mill,SIPEF Group,-5.31111488,151.0109719,PNG,RSPO Certified,SIPEF Group,{F1A6798A-65D8-4887-A91B-B9DB3FDECF38}
148.160793000111312,-8.769183999692867,2615,WRI_2118,Mamba Mill,New Britain Palm Oil Ltd,-8.769184,148.160793,PNG,RSPO Certified,New Britain Palm Oil Ltd,{E1C4C443-292E-408F-9DFE-9026A185211E}
148.198704999797286,-8.743386000189822,2616,WRI_2119,Sangara Mill,New Britain Palm Oil Ltd,-8.743386,148.198705,PNG,RSPO Certified,New Britain Palm Oil Ltd,{104A18E0-079B-43B6-86BA-94A56A890A69}
99.333333000371198,3.100000000268615,2617,WRI_2121,Dolok Sinumbah POM,PT Perkebunan Nusantara IV (PERSERO),3.1,99.333333,IDN,RSPO Certified,PT Perkebunan Nusantara IV (PERSERO),{8907817F-6284-4C50-8A96-477F958D6072}
99.23333300018551,2.983333000125407,2618,WRI_2123,Bah Jambi POM,PT Perkebunan Nusantara IV (PERSERO),2.983333,99.233333,IDN,RSPO Certified,PT Perkebunan Nusantara IV (PERSERO),{878276BD-045C-451D-967C-4889C8C59A69}
104.128241999651792,-2.612778000095768,2619,WRI_2126,Sungai Lilin,Unknown,-2.612778,104.128242,IDN,None,Cargill Incorporated,{5387D36C-3D45-4CB0-B7CF-20A60A3A02C4}
103.943999999856018,-2.54959999967551,2620,WRI_2127,Tanjung Dalam,Unknown,-2.5496,103.944,IDN,None,Cargill Incorporated,{491A91A7-352C-4BE3-AF3B-B19C206AB807}
98.059444000435434,4.231943999967285,2621,WRI_2128,Sungai Liput Mill,Unknown,4.231944,98.059444,IDN,None,Socfin Group (PT Socfindo and Socfinco SA),{5AAF48F9-3F3F-4D17-B73B-B4E308B3C064}
99.626587999719206,0.198959000182519,2622,WRI_2129,PT Agrowiratama POM,PT Agrowiratama,0.198959,99.626588,IDN,RSPO Certified,PT Agrowiratama,{184097A7-439A-4861-A65E-03D3777A969C}
102.879799999875786,2.045600000400018,2623,WRI_213,Ban Dung Palm Oil Industries Sdn Bhd,Unknown,2.0456,102.8798,MYS,None,Unknown,{6E591085-D086-441C-B380-E7C29EEFBE97}
104.216666999890791,1.633332999591959,2624,WRI_2131,Siang,Unknown,1.633333,104.216667,MYS,None,Johor Corporation,{89ECD5D8-598F-4A60-8138-7BEF90FF4FE7}
103.966666999875699,1.966666999628416,2625,WRI_2132,Tunjuk Laut,Johor Corporation,1.966667,103.966667,MYS,RSPO Certified,Johor Corporation,{48BEF18D-7E60-4CAB-8AE1-40A2B1E7FBE5}
101.862638999649207,4.202694000220307,2626,WRI_2133,SOU 10 Bukit Puteri POM,Unknown,4.202694,101.862639,MYS,None,Sime Darby Plantation Sdn Bhd,{F454AF6C-8197-49A1-8457-AB1E0A11FC7C}
116.85194400014268,1.12277800015376,2627,WRI_2136,PT Swakarsa Sinarsentosa Mill,Unknown,1.122778,116.851944,IDN,None,PT Swakarsa Sinarsentosa,{D95C5756-5EB6-4973-889F-5039AC9529A9}
104.032500000438077,-2.186388999892994,2628,WRI_2137,Tirta Agung Mill,Unknown,-2.186389,104.0325,IDN,None,PT PP London Sumatra Indonesia Tbk,{BCE0CA64-6E03-43FF-AAEE-321A7A1E409D}
99.110666999805034,3.288066999568655,2629,WRI_2138,Pabatu Mill,Unknown,3.288067,99.110667,IDN,None,PT Perkebunan Nusantara IV (PERSERO),{0F71FBFE-01C2-44F2-BC5A-86F4B605FAF9}
105.183367000341235,-4.851550000079501,2630,WRI_2139,PKS Tunas Baru Lampung,PT Tunas Baru Lampung Tbk,-4.85155,105.183367,IDN,RSPO Certified,PT Tunas Baru Lampung Tbk,{A380F658-3DE1-432C-8183-0C167900A1E0}
103.49779999978378,1.937500000386584,2631,WRI_214,KKS Belitong,Unknown,1.9375,103.4978,MYS,None,Unknown,{4D2E85D5-9F9E-4342-92F7-B2DC684D2EB4}
103.588832999735402,0.256500000319352,2632,WRI_2143,Teluk Bakau POM,Sime Darby Plantation Sdn Bhd,0.2565,103.588833,IDN,RSPO Certified,Sime Darby Plantation Sdn Bhd,{8C303A60-E499-4167-A369-E54B9F8090A9}
99.042999999656899,3.331868999726455,2633,WRI_2147,Bangun Bandar Mill,Unknown,3.331869,99.043,IDN,None,Socfin Group (PT Socfindo and Socfinco SA),{7BFD7DA1-0BA6-4301-90E2-3FB110E7409A}
112.109721999861137,-2.360832999858877,2634,WRI_2148,Hanau Mill,Unknown,-2.360833,112.109722,IDN,None,PT Smart Tbk,{C702D878-1A89-4B9C-BC34-22FB1F3BC9D2}
103.676800000214996,1.765699999958779,2635,WRI_215,KKS Bukit Besar,Unknown,1.7657,103.6768,MYS,None,Unknown,{35BF8F78-8292-4F49-A04B-7496B8E50CC1}
102.074999999789796,-0.049999999585723,2636,WRI_2153,Pabrik Kelapa Sawit Pangkalan Lesung POM,PT Musim Mas,-0.05,102.075,IDN,RSPO Certified,PT Musim Mas,{949855C3-42A4-4F50-AE6A-DD163DB0EB77}
103.148700000106587,3.966899999921213,2637,WRI_2159,Bukit Sagu POM,FELDA,3.9669,103.1487,MYS,RSPO Certified,FELDA,{A4D3C61A-1B09-4ADC-83FC-4699B13D9343}
100.918299999795025,5.673300000346068,2638,WRI_216,Elite Palms Industries Sdn Bhd,Unknown,5.6733,100.9183,MYS,None,Unknown,{EA1C8DE5-403A-4A65-8911-26CA7FB3EDCD}
119.006599999651556,5.150900000143742,2639,WRI_2160,KKS Baiduri Ayu,FELDA,5.1509,119.0066,MYS,RSPO Certified,FELDA,{4130C261-76B5-4576-BC48-A3F359AC701C}
119.189200000380495,5.19530000020466,2640,WRI_2161,KKS Fajar Harapan,FELDA,5.1953,119.1892,MYS,RSPO Certified,FELDA,{FF9DA62C-4338-43CF-8072-ED548EE7C7E4}
104.103332999617393,1.578332999664937,2641,WRI_2162,Semenchu POM,Unknown,1.578333,104.103333,MYS,None,FELDA,{07E1AC08-3FFA-451F-AABB-EA0DBC497B96}
102.559150000081203,3.590383000230533,2642,WRI_2163,Jengka 18 POM,FELDA,3.590383,102.55915,MYS,RSPO Certified,FELDA,{EE06A8C9-B9B4-4333-A141-748A64AAF10B}
102.60166700017048,3.684444000112123,2643,WRI_2165,Jengka 8 POM,FELDA,3.684444,102.601667,MYS,RSPO Certified,FELDA,{156194C0-6F19-4328-A16F-8009B40B53C8}
103.649999999795142,1.733332999689456,2644,WRI_2167,Kulai POM,FELDA,1.733333,103.65,MYS,RSPO Certified,FELDA,{159689CD-D424-4F6F-BBF8-63091F7173E7}
102.815466999886624,3.878966999825871,2645,WRI_2168,Lepar Utara 4 POM,FELDA,3.878967,102.815467,MYS,RSPO Certified,FELDA,{495C70FF-5DEF-4FAC-964D-EC10449F436C}
116.728917000087208,1.250806000448616,2646,WRI_2169,PT DSN Mill 2,Unknown,1.250806,116.728917,IDN,None,PT Dharma Satya Nusantara Palm Oil (PT DSN),{C90CA429-259D-4BEF-B94C-F0D9A6D22D7A}
102.150999999787217,5.807399999659776,2647,WRI_217,Kilang Kelapa Sawit Kemahang,Unknown,5.8074,102.151,MYS,None,Unknown,{0CFED2EB-56E0-47EA-AD30-E8DCF3F47499}
103.333055999705138,1.911666999868068,2648,WRI_2170,Bukit Benut POM,Sime Darby Plantation Sdn Bhd,1.911667,103.333056,MYS,RSPO Certified,Sime Darby Plantation Sdn Bhd,{97E1A2CD-7395-4F03-9672-155399DE0C0A}
100.453332999576489,4.990000000280138,2649,WRI_2171,Chersonese POM,Sime Darby Plantation Sdn Bhd,4.99,100.453333,MYS,RSPO Certified,Sime Darby Plantation Sdn Bhd,{06D84193-85CF-4208-A8C4-371F2D5BF18B}
101.093611000240017,4.890000000225668,2650,WRI_2173,SOU 3 Elphil Mill,Sime Darby Plantation Sdn Bhd,4.89,101.093611,MYS,RSPO Certified,Sime Darby Plantation Sdn Bhd,{723EDC74-361C-4CC9-A57D-8B3610C5D3E4}
100.857222000322054,3.928055999621318,2651,WRI_2174,Flemington POM,Sime Darby Plantation Sdn Bhd,3.928056,100.857222,MYS,RSPO Certified,Sime Darby Plantation Sdn Bhd,{459B3F48-4976-4556-8BCD-3F09C63AC9BC}
101.792785999562824,2.655302999718193,2652,WRI_2176,SOU 14 Tanah Merah,Sime Darby Plantation Sdn Bhd,2.655303,101.792786,MYS,RSPO Certified,Sime Darby Plantation Sdn Bhd,{BBBDF73B-6A2E-46FE-9F30-C8D4B3F2A8D3}
101.35000000001547,2.916666999740796,2653,WRI_2177,SOU 9 West Mill,Sime Darby Plantation Sdn Bhd,2.916667,101.35,MYS,RSPO Certified,Sime Darby Plantation Sdn Bhd,{04EE34F1-2BBC-4559-B3A8-407287257446}
102.27480000014468,4.999899999963188,2654,WRI_218,Kilang Kelapa Sawit Paloh 3,Unknown,4.9999,102.2748,MYS,None,Unknown,{4EF5A2AC-6C3E-4593-9EE3-5060ACE40EF1}
-74.181285999908425,10.548546999941093,2655,WRI_2182,Extractora Tequendama,Daabon Group,10.548547,-74.181286,COL,RSPO Certified,Daabon Group,{8A95F89E-3B44-4450-A4CC-567E24141AF8}
117.29083300018965,6.203889000337487,2656,WRI_2183,Sri Kamusan Palm Oil Mill,PPB Oil Palms Berhad,6.203889,117.290833,MYS,RSPO Certified,PPB Oil Palms Berhad,{52CE5109-A856-45B6-97B9-23B809E203F8}
118.588200000081883,5.083900000334522,2657,WRI_2184,Lungmanis POM,Kuala Lumpur Kepong Berhad,5.0839,118.5882,MYS,RSPO Certified,Kuala Lumpur Kepong Berhad,{FEC9E788-8A3D-491E-8DAA-E38505A05856}
118.571500000048175,5.019300000366144,2658,WRI_2185,Rimmer POM,Kuala Lumpur Kepong Berhad,5.0193,118.5715,MYS,RSPO Certified,Kuala Lumpur Kepong Berhad,{3E937680-EE7B-4362-BEE8-6687CA09E363}
118.210000000243724,5.300000000012888,2659,WRI_2186,Asia POM,Carotino/ JC Chang Group,5.3,118.21,MYS,RSPO Certified,Carotino/ JC Chang Group,{5AC06419-4B40-4B58-A30D-292C1135501C}
-88.559813999757267,15.582959000387486,2660,WRI_2191,Extractora del Atlantico S.A.,Corporacion Agroindustrial del Caribe S.A,15.582959,-88.559814,GTM,RSPO Certified,Corporacion Agroindustrial del Caribe S.A,{A1C27F9E-7C32-4C6C-A5A6-48DE58D75361}
-73.455428000341627,7.706147000272036,2661,WRI_2192,INDUSTRIAL AGRARIA LA PALMA LIMITADA-INDUPALMA LTDA,INDUSTRIAL AGRARIA LA PALMA LIMITADA-INDUPALMA LTDA,7.706147,-73.455428,COL,RSPO Certified,INDUSTRIAL AGRARIA LA PALMA LIMITADA-INDUPALMA LTDA,{015031FF-1161-4226-9C0D-343F8BE9FC2F}
101.895278000008517,2.528333000176719,2662,WRI_2193,SOU 15 - Sua Betong POM,Sime Darby Plantation Sdn Bhd,2.528333,101.895278,MYS,RSPO Certified,Sime Darby Plantation Sdn Bhd,{A517C21C-5DAE-43C7-8CF5-8E8B873A2BC2}
118.40539100001385,5.177210999823338,2663,WRI_2194,Sabahmas POM,PPB Oil Palms Berhad,5.177211,118.405391,MYS,RSPO Certified,PPB Oil Palms Berhad,{89349D99-B7A8-4509-8FAA-73F2F59E5609}
117.463736999865176,5.766707000341927,2664,WRI_2196,Reka Halus POM,Unknown,5.766707,117.463737,MYS,None,PPB Oil Palms Berhad,{F5A2A73B-92B6-4582-9F69-93EB7D226749}
102.577400000018514,3.270011000102801,2665,WRI_2199,Triang POM,Unknown,3.270011,102.5774,MYS,None,FELDA,{C8ADED98-45DE-48FC-8D6C-4928C79D4CDC}
103.497399999750698,2.740099999777421,2666,WRI_22,Endau Palm Oil Mill,Unknown,2.7401,103.4974,MYS,None,Unknown,{5D9118F1-909A-4211-AE35-A01139CBFF89}
102.211400000291036,2.374000000354906,2667,WRI_220,Kilang Kelapa Sawit Sri Lingga,Unknown,2.374,102.2114,MYS,None,Unknown,{F62F2176-12E5-439B-87E3-EC889485B410}
118.200000000314972,4.583332999944639,2668,WRI_2201,SOU 29 GIRAM,Sime Darby Plantation Sdn Bhd,4.583333,118.2,MYS,RSPO Certified,Sime Darby Plantation Sdn Bhd,{68F97DD4-B92D-4F3F-9798-3F6ED0104823}
101.436136000384053,2.883333000317162,2669,WRI_2204,SOU 8 East Mill,Sime Darby Plantation Sdn Bhd,2.883333,101.436136,MYS,RSPO Certified,Sime Darby Plantation Sdn Bhd,{CFA05B1A-3636-4415-A8EC-0F524B87D0A8}
103.304167000329713,3.932000000345667,2670,WRI_2205,SOU 12 Jabor POM,Sime Darby Plantation Sdn Bhd,3.932,103.304167,MYS,RSPO Certified,Sime Darby Plantation Sdn Bhd,{40BA5A7D-F6E5-4457-BC0C-62BE164EE8C4}
151.276300000085399,-2.874633000171405,2671,WRI_2207,Poliamba Mill,New Britain Palm Oil Ltd,-2.874633,151.2763,PNG,RSPO Certified,New Britain Palm Oil Ltd,{9A6D2EE0-16D7-4667-8612-86BD774C2AB1}
118.051943999676212,5.271389000358486,2672,WRI_2211,Melewar POM,Carotino/ JC Chang Group,5.271389,118.051944,MYS,RSPO Certified,Carotino/ JC Chang Group,{7DC897C1-D2B1-495A-B7FD-A1D7F1BF2C38}
103.964952999940536,1.54052500001684,2673,WRI_2215,Masai Palm Oil Mill,Keck Seng (Malaysia) Berhad,1.540525,103.964953,MYS,RSPO Certified,Keck Seng (Malaysia) Berhad,{4C4DBFA6-A224-43B2-8682-184513732C41}
107.771832999840868,-3.031263999708293,2674,WRI_2218,PT FORESTA LESTARI DWIKARYA - Tanjung Kembiri POM,Unknown,-3.031264,107.771833,IDN,None,Golden Agri-Resources Ltd,{F6B35B11-1F09-4565-BA5D-D1984CD96169}
118.223669999892095,4.465619999928105,2675,WRI_2219,KLK (S) MILL 2,Kuala Lumpur Kepong Berhad,4.46562,118.22367,MYS,RSPO Certified,Kuala Lumpur Kepong Berhad,{06430FE8-2666-4645-A360-78EE87A7F7EF}
118.270937000149701,4.432593000397483,2676,WRI_2222,KLK (S) PINANG POM,Kuala Lumpur Kepong Berhad,4.432593,118.270937,MYS,RSPO Certified,Kuala Lumpur Kepong Berhad,{CC8BF6BA-FC9F-4FFD-97CB-706143151B8A}
150.286999999562454,-10.316332999911578,2677,WRI_2223,Hagita POM,New Britain Palm Oil Ltd,-10.316333,150.287,PNG,RSPO Certified,New Britain Palm Oil Ltd,{0154950A-2A49-4E78-9022-5FB8249D4907}
103.406027999865358,-2.985722000401982,2678,WRI_2224,Sungai Pinang POM,Unknown,-2.985722,103.406028,IDN,None,Sime Darby Plantation Sdn Bhd,{3219ACE0-7C97-412C-B6DB-B41DC2245BC2}
103.827499999653156,10.908333000383315,2679,WRI_2227,MRICOP POM,Unknown,10.908333,103.8275, ,None,"Mong Reththy Investment Cambodia Oil Palm Co., Ltd (MRICOP)",{3BA8CAA1-D238-41B8-AA35-C7AC9AA99DC0}
118.417217000030732,5.431100000217159,2680,WRI_2229,Jeroco Palm Oil Mill 1,Hap Seng Plantations Holdings Bhd,5.4311,118.417217,MYS,RSPO Certified,Hap Seng Plantations Holdings Bhd,{CB3372AD-BE4E-4AA6-B6A4-79A09863AD1D}
101.997900000150565,2.582600000156094,2681,WRI_223,Kilang Kelapa Sawit Ulu Kanchong,Unknown,2.5826,101.9979,MYS,None,Unknown,{F2801D67-A1D6-4CCA-8E4B-990431047D5B}
103.462500000008376,1.834444000211904,2682,WRI_2233,"SOU 23 Ulu Remis, Layang-Layang",Unknown,1.834444,103.4625,MYS,None,Sime Darby Plantation Sdn Bhd,{4DB7F3E9-5E0D-4C23-8363-B18631D81E03}
113.345417000078584,3.390203000150612,2683,WRI_2234,SOU 33 Derawan POM,Sime Darby Plantation Sdn Bhd,3.390203,113.345417,MYS,RSPO Certified,Sime Darby Plantation Sdn Bhd,{C78662D2-4164-415C-8396-C7CD5B564A45}
104.121944000128039,1.687499999810766,2684,WRI_2235,Lok Heng POM,Unknown,1.6875,104.121944,MYS,None,FELDA,{FC09A59D-7D58-46D5-943E-338936179D17}
104.186360999782821,1.551917000326022,2685,WRI_2236,Adela POM,FELDA,1.551917,104.186361,MYS,RSPO Certified,FELDA,{59F10D63-1BA3-401B-AE27-F23E6CE0F89F}
99.430278000057214,3.164722000142452,2686,WRI_2237,Dolok,Unknown,3.164722,99.430278,IDN,None,PT PP London Sumatra Indonesia Tbk,{865DF0D9-F3B9-47C4-99C8-97CBAB6B052C}
102.81980000030336,2.993399999933909,2687,WRI_224,Kilang Kosfarm Sdn Bhd,Unknown,2.9934,102.8198,MYS,None,Unknown,{0FC4E2C9-979B-4FF1-84E5-39452D9DB959}
116.114166999774241,-2.439166999864002,2688,WRI_2240,Rantau POM,Sime Darby Plantation Sdn Bhd,-2.439167,116.114167,IDN,RSPO Certified,Sime Darby Plantation Sdn Bhd,{F0F86322-746E-411F-A3B0-D862B133D8E8}
102.733333000396982,2.18333300038957,2689,WRI_2241,SOU 19 Nordanal Mill,Sime Darby Plantation Sdn Bhd,2.183333,102.733333,MYS,RSPO Certified,Sime Darby Plantation Sdn Bhd,{0CD19807-D5CA-4552-B7C9-A0EC82F77B5E}
111.953941999643504,-2.360233000033789,2690,WRI_2242,Sekunyir POM,Sime Darby Plantation Sdn Bhd,-2.360233,111.953942,IDN,RSPO Certified,Sime Darby Plantation Sdn Bhd,{F8998B9C-2AEA-4243-A8A9-FFF2922E61F9}
101.971667000168353,0.348056000101868,2691,WRI_2243,PT Adei Plantation - Nilo 1 POM,Kuala Lumpur Kepong Berhad,0.348056,101.971667,IDN,RSPO Certified,Kuala Lumpur Kepong Berhad,{6BCC1868-43A5-495D-A605-054158F8479F}
115.999999999822734,5.249999999942131,2692,WRI_2248,SOU 27 (Melalap),Sime Darby Plantation Sdn Bhd,5.25,116,MYS,RSPO Certified,Sime Darby Plantation Sdn Bhd,{35AC848E-A946-4480-ACCC-7BC6DF43CAC6}
150.684400000090221,-5.623659999955116,2693,WRI_2249,Kapiura,New Britain Palm Oil Ltd,-5.62366,150.6844,PNG,RSPO Certified,New Britain Palm Oil Ltd,{B434C54F-5D3A-40E3-BA84-04ECC35F09E5}
102.491200000075821,3.440200000149109,2694,WRI_225,KKS Charuk Putting,Unknown,3.4402,102.4912,MYS,None,Unknown,{1A8A1EFB-4B82-4BB5-9C99-52DBFB200EBE}
150.212110000150915,-5.591959999739904,2695,WRI_2250,Kumbango,New Britain Palm Oil Ltd,-5.59196,150.21211,PNG,RSPO Certified,New Britain Palm Oil Ltd,{26ED6CB2-1D45-4944-AC51-252187261219}
150.237349999723136,-5.622468000252352,2696,WRI_2251,Mosa,New Britain Palm Oil Ltd,-5.622468,150.23735,PNG,RSPO Certified,New Britain Palm Oil Ltd,{BB203B67-DA6E-43BD-8CE0-204A62CF3192}
102.597374999761641,3.346311000037137,2697,WRI_2253,Bukit Kepayang POM,Unknown,3.346311,102.597375,MYS,None,FELDA,{66BDFA99-D605-4031-8073-8199213449FD}
110.483332999966976,0.266666999782231,2698,WRI_2256,Bukit Ajong Palm Oil Mill,Unknown,0.266667,110.483333,IDN,None,Sime Darby Plantation Sdn Bhd,{0634080E-6258-4A1D-92AE-B99129C36778}
102.981389000323176,-1.300278000214599,2699,WRI_2259,Tungkal Ulu POM,Unknown,-1.300278,102.981389,IDN,None,PT Inti Indosawit Subur,{736CC3F7-70CB-4DFB-A21D-53A7412B6A4B}
112.443889000041537,-2.480278000356086,2700,WRI_2260,Sungai Purun POM,PT Agro Indomas,-2.480278,112.443889,IDN,RSPO Certified,PT Agro Indomas,{21BE7943-8076-47CF-8252-CA4D2C3FA9CE}
101.804749999671969,2.74888899967074,2701,WRI_2261,SOU 13 Labu POM,Sime Darby Plantation Sdn Bhd,2.748889,101.80475,MYS,RSPO Certified,Sime Darby Plantation Sdn Bhd,{EF567309-C772-4CFC-B800-94F9591362EE}
145.984582999745044,-6.073194000338335,2702,WRI_2264,Gusap Mill,New Britain Palm Oil Ltd,-6.073194,145.984583,PNG,RSPO Certified,New Britain Palm Oil Ltd,{FBB7EC7E-3616-478E-A71D-74AFADAA4AE0}
-48.796943999569834,-2.525278000403461,2703,WRI_2266,AMAPALMA,Unknown,-2.525278,-48.796944,BRA,None,Agropalma Group,{F91A5400-581D-41B6-819B-758EFF2024BE}
101.206147000097104,0.926325000338504,2704,WRI_2268,Libo Mill,Unknown,0.926325,101.206147,IDN,None,PT Ivo Mas Tunggal,{A8FC9074-2706-421D-A7C9-A4AF94B2ED91}
101.629999999816818,2.662777999715154,2705,WRI_2270,Pabrik Kelapa Sawit Kencana Sawit Indonesia,Wilmar International Ltd,2.662778,101.63,MYS,RSPO Certified,Wilmar International Ltd,{2E548038-6AEE-4EBD-AAFD-5CD5F97211AE}
99.343861000379547,3.130777999733717,2706,WRI_2271,Sei Mangke POM,PT Perkebunan Nusantara III,3.130778,99.343861,IDN,RSPO Certified,PT Perkebunan Nusantara III,{28B3608F-D013-4EFD-A2AC-B29F6D6ADE8F}
101.731955999786976,2.678485999601697,2707,WRI_2274,SOU 9A Sepang Mill,Sime Darby Plantation Sdn Bhd,2.678486,101.731956,MYS,RSPO Certified,Sime Darby Plantation Sdn Bhd,{3E67A657-F111-4432-B865-24433F35D107}
112.543611000392914,-2.894443999943578,2708,WRI_2275,PT Sarana Titian Permata POM,Wilmar International Ltd,-2.894444,112.543611,IDN,RSPO Certified,Wilmar International Ltd,{1B49D227-9404-4808-8C9F-86C5DDD22BA8}
112.238055999578492,-2.210555999844013,2709,WRI_2277,"Teguh Sempurna, Pemantang POM",Sime Darby Plantation Sdn Bhd,-2.210556,112.238056,IDN,RSPO Certified,Sime Darby Plantation Sdn Bhd,{D6CA7428-8C13-43BC-A35F-EAE61DF1A73D}
103.000500000426044,2.637799999681682,2710,WRI_228,KKS Selancar 2B,Unknown,2.6378,103.0005,MYS,None,Unknown,{9E944625-D57A-4A3D-8C49-99A06610A19D}
102.817908999917904,3.816974000269696,2711,WRI_2281,Carotino POM,Carotino/ JC Chang Group,3.816974,102.817909,MYS,RSPO Certified,Carotino/ JC Chang Group,{9D36B8E1-565C-40A5-94AD-57AC2EB29A29}
100.666667000035602,5.400000000063822,2712,WRI_2282,SOU 1 Sungai Dingin,Sime Darby Plantation Sdn Bhd,5.4,100.666667,MYS,RSPO Certified,Sime Darby Plantation Sdn Bhd,{0671CFCF-8800-4EDE-B955-DD3D9ECEB340}
101.376849999765767,3.190160999555491,2713,WRI_2284,SOU 7 Bukit Kerayong,Sime Darby Plantation Sdn Bhd,3.190161,101.37685,MYS,RSPO Certified,Sime Darby Plantation Sdn Bhd,{44457E66-F11B-4FFC-AA0F-5A62B721C109}
99.403889000439392,3.204167000119086,2714,WRI_2288,Tanah Gambus Mill,Unknown,3.204167,99.403889,IDN,None,Socfin Group (PT Socfindo and Socfinco SA),{5001A32B-B090-4D08-9921-E10FDC53A918}
102.34570000016943,3.864499999972312,2715,WRI_229,Kilang Kelapa Sawit Jerantut,Unknown,3.8645,102.3457,MYS,None,Unknown,{664B5A16-96E9-471A-B088-FD9B5ED5C8EA}
99.091944000039703,3.53083300006741,2716,WRI_2291,Mata Pao Mill,Unknown,3.530833,99.091944,IDN,None,Socfin Group (PT Socfindo and Socfinco SA),{A03B0966-B392-4538-B247-3A1664E77C85}
112.373610999807696,-2.559974999610557,2717,WRI_2295,Terawan Mill,PT Agro Indomas,-2.559975,112.373611,IDN,RSPO Certified,PT Agro Indomas,{407EE35B-64DC-4605-A175-BC4861C9F9DC}
102.840400000210451,3.033899999875173,2718,WRI_23,Wujud Wawasan,Unknown,3.0339,102.8404,MYS,None,Unknown,{D1246960-FCDB-4506-BA49-B037401B770C}
102.689899999890542,3.558599999781082,2719,WRI_230,Kilang Kelapa Sawit Felcra Maran,Unknown,3.5586,102.6899,MYS,None,Unknown,{C33A3A21-1A0D-446A-AA49-5EC914117D99}
101.249999999829768,3.699999999927813,2720,WRI_2301,Ulu Basir POM,United Plantations Bhd,3.7,101.25,MYS,RSPO Certified,United Plantations Bhd,{6A2087ED-9B94-416D-AB13-9C2FAF741B8E}
102.045832999681707,0.166666999665231,2721,WRI_2302,Ukui I,Unknown,0.166667,102.045833,IDN,None,PT Inti Indosawit Subur,{4200AF22-0AC7-4640-9776-7836DE0A9114}
100.666667000035602,4.416666999877593,2722,WRI_2304,United International Enterprises POM,United Plantations Bhd,4.416667,100.666667,MYS,RSPO Certified,United Plantations Bhd,{A1120A4E-643E-4B7E-93B0-423438C855DA}
101.116667000422126,3.750000000094598,2723,WRI_2305,Ulu bernam POM,United Plantations Bhd,3.75,101.116667,MYS,RSPO Certified,United Plantations Bhd,{D82F2B15-A43D-4A35-88FC-2BE28BEFC88D}
102.489532999996328,3.921733000182989,2724,WRI_2306,Padang Piol POM,FELDA,3.921733,102.489533,MYS,RSPO Certified,FELDA,{EB84047A-8C9A-4317-B608-988B5F5EF6A8}
121.563610999895872,-2.222778000125435,2725,WRI_2310,Ungkaya Mill,Unknown,-2.222778,121.563611,IDN,None,Sime Darby Plantation Sdn Bhd,{7A76384A-A438-4A35-A495-4D30A1E65C36}
117.749999999928448,5.720000000120137,2726,WRI_2311,Segaliud Palm Oil Mill,Sime Darby Plantation Sdn Bhd,5.72,117.75,MYS,RSPO Certified,Sime Darby Plantation Sdn Bhd,{012617B9-14FE-4100-B93A-C55EDE4DF9D4}
103.703006000433035,1.767831000309624,2727,WRI_2312,Bukit Besar POM,FELDA,1.767831,103.703006,MYS,RSPO Certified,FELDA,{E53692FF-4339-4C6D-9CC9-61F19B384FDF}
102.530833000267975,3.826943999820483,2728,WRI_2313,Jengka 3 POM,FELDA,3.826944,102.530833,MYS,RSPO Certified,FELDA,{5475E720-7ED1-4481-97AB-8B02EB302C6F}
101.133333000120629,3.983333000107508,2729,WRI_2314,Seri Pelangi POM,United Plantations Bhd,3.983333,101.133333,MYS,RSPO Certified,United Plantations Bhd,{443FEF80-552D-4F03-BBD5-1386738D5A0D}
102.307778000437708,3.568611000439513,2730,WRI_2315,SOU 11 Kerdau POM,Unknown,3.568611,102.307778,MYS,None,Sime Darby Plantation Sdn Bhd,{F3DFC95E-CD94-4F45-A792-CB99383DAB01}
103.100299999696887,3.336800000421667,2731,WRI_2316,Sungai Jernih,Unknown,3.3368,103.1003,MYS,None,Boustead Plantations Berhad,{A030087A-3F6E-4FF1-8214-B6716DFE46B1}
117.362000000178099,5.746000000111825,2732,WRI_2317,Wild Asia Sdn. Bhd. (Wild Asia Group Scheme),Wild Asia Sdn. Bhd. (Wild Asia Group Scheme),5.746,117.362,MYS,RSPO Certified,Wild Asia Sdn. Bhd. (Wild Asia Group Scheme),{0CB50414-884B-483B-AAD5-33C567F93914}
103.148393999784801,2.058807999704023,2733,WRI_2319,SOU 19A Yong Peng,Sime Darby Plantation Sdn Bhd,2.058808,103.148394,MYS,RSPO Certified,Sime Darby Plantation Sdn Bhd,{4C9199FC-1171-4EFB-88F5-C487B1258747}
102.976300000221201,2.962599999966103,2734,WRI_232,KKS Keratong 9,Unknown,2.9626,102.9763,MYS,None,Unknown,{1C0FF168-5C53-41DE-AC91-5AB18A393FC2}
-48.586000000161789,-2.247430000161295,2735,WRI_2323,CPA,Unknown,-2.24743,-48.586,BRA,None,Agropalma,{E3D6E80A-B203-42D9-B5FB-E37E6944667F}
-48.796199999580168,-2.532410000017565,2736,WRI_2324,"CRAI/AGROPAR; AMAPALMA",Unknown,-2.53241,-48.7962,BRA,None,Agropalma,{3C8FCC53-2268-458C-B30B-98D30CFBA83A}
-48.711500000210698,-2.545629999770241,2737,WRI_2325,AGROPALMA,Unknown,-2.54563,-48.7115,BRA,None,Agropalma,{2A660FC9-71FA-4DEF-9577-D6969494F407}
99.305016669802882,3.296391667205199,2738,WRI_2334,PT MITRA AGUNG SAWITA SEJATI jl.,Unknown,3.29639167,99.30501667,IDN,None,Unknown,{36C1C194-EBB5-48E2-87B0-6E8A815DDC7E}
98.10808333000314,4.355972221650499,2739,WRI_2338,PT BAHARI DWIKENCANA LESTARI,Unknown,4.35597222,98.10808333,IDN,None,Unknown,{778F8F6E-D219-4400-A85F-C91B235FAC46}
97.956666669902688,2.391111111073107,2740,WRI_2344,LAE BUTAR MILL,Unknown,2.39111111,97.95666667,IDN,None,PT SOCFIN INDONESIA,{E0BDDC8C-6A62-4740-B936-952829C93D08}
101.259199999692356,4.196999999925041,2741,WRI_237,Kilang Minyak Sawit Ulu Basir,Unknown,4.197,101.2592,MYS,None,Unknown,{F4A2F896-65D5-4EE6-A093-5C9E56876698}
101.260999999841204,4.203999999665286,2742,WRI_238,Syarikat Cahaya Muda Perak (Oil Mil) Sdn Bhd,Unknown,4.204,101.261,MYS,None,Unknown,{249617F8-1C19-434C-852B-E262F61B3478}
101.310099999859631,4.000199999793195,2743,WRI_239,KKS Besout,Unknown,4.0002,101.3101,MYS,None,Unknown,{A6A15974-E948-44C5-AF11-2DE336785331}
102.475399999667374,3.148599999762826,2744,WRI_24,Cheekah Kemayan,Unknown,3.1486,102.4754,MYS,None,Unknown,{91A66172-D1FF-4B75-8FA1-73FAD2A69E73}
101.430099999902822,2.853599999872548,2745,WRI_240,KKS Changkat Cermin,Unknown,2.8536,101.4301,MYS,None,Unknown,{8D40B08C-892E-43ED-A715-0E6CF767D79E}
101.282399999814473,4.109700000293663,2746,WRI_241,KKS Yee Lee Palm Oil Industries S/B,Unknown,4.1097,101.2824,MYS,None,Unknown,{E291308F-A0D5-4F96-B243-0E18BC5D5999}
-74.570277780156644,7.721111110738638,2747,WRI_2412,EXTRACTORA MONTERREY S.A.,Unknown,7.72111111,-74.57027778,COL,None,Unknown,{F17BA7BC-5CCF-4FF6-86C6-6EB2428C248E}
100.461699999760938,4.978699999685311,2748,WRI_242,KKS Ladang Gula,Unknown,4.9787,100.4617,MYS,None,Unknown,{E67907B0-FFCB-467D-A7E0-2DD14C7A9C30}
99.331222219964943,3.056027778400254,2749,WRI_2424,PT HUTA BAYU MARSADA,Unknown,3.05602778,99.33122222,IDN,None,Unknown,{CA74BA1B-7C6A-4A86-A7C8-5BF914F6D40B}
100.445199999743792,5.310799999856782,2750,WRI_243,Kilang Kalapa Sawit Kalumpang,Unknown,5.3108,100.4452,MYS,None,Unknown,{18C6679B-B749-477A-83B2-5E3A48CED387}
98.390638890362368,3.560627778224944,2751,WRI_2432,PADANG BRAHRANG MILL (double M445),Unknown,3.56062778,98.39063889,IDN,None,PT LANGKAT NUSANTARA KEPONG,{ABDF1470-D2E6-460D-99F1-6AB09400687E}
104.323739999552046,-2.716689999611628,2752,WRI_2440,Agro Palindo Sakti 1,Unknown,-2.71669,104.32374,IDN,None,Unknown,{BBF0F590-FB16-4FB9-B191-5C5956299100}
99.439200000085435,3.370419999566351,2753,WRI_2441,Multimas Nabati Asahan,Unknown,3.37042,99.4392,IDN,None,Unknown,{59460533-0FDA-41C8-B60F-8B1A461D0469}
109.424879999864672,-0.022180000292286,2754,WRI_2448,Bumi Pratama Khatulistiwa,Unknown,-0.02218,109.42488,IDN,None,Unknown,{16E36C02-2053-40D1-BAC8-6AB53458DD6F}
117.364499999935717,-0.417580000057591,2755,WRI_2449,Tritunggal Sentra Buana,Unknown,-0.41758,117.3645,IDN,None,Unknown,{FB6F556D-1907-4F67-AB1C-980B74B56F93}
101.300499999963989,3.30189999967868,2756,WRI_245,Bukit Rotan Palm Oil Mills Sdn Bhd,Unknown,3.3019,101.3005,MYS,None,Unknown,{F3E49DF8-BCC9-44D7-92EF-268B3011A914}
109.732670000122823,0.276880000223389,2757,WRI_2454,Agro Nusantara Investama 2,Unknown,0.27688,109.73267,IDN,None,Unknown,{84F31F09-3727-437C-80B9-5C7AB4FE7FDD}
101.306899999594989,3.360399999765897,2758,WRI_246,K.K.S Kampung Kuantan Bhd,Unknown,3.3604,101.3069,MYS,None,Unknown,{DA91A428-6DD3-40D6-A275-0328E86948A1}
101.38769999998938,3.138600000094469,2759,WRI_247,K.K.S Golconda,Unknown,3.1386,101.3877,MYS,None,Unknown,{F049FE98-9129-47C5-9130-92919181CF9D}
-92.783866669682112,17.739213889828576,2760,WRI_2473,Humberto Zurita Solorzano,Unknown,17.73921389,-92.78386667,MEX,None,Unknown,{4E64024B-8800-48C1-82BB-F1A463D148AD}
-91.942250000109084,17.579738889920506,2761,WRI_2474,GREGORIO CABRERA GONZALEZ,Unknown,17.57973889,-91.94225,MEX,None,Unknown,{920DCB8B-29BC-4394-9B0D-120987D533BD}
-92.863980560218678,15.344808330105016,2762,WRI_2475,HILARIO GOMEZ GOMEZ,Unknown,15.34480833,-92.86398056,MEX,None,Unknown,{68F13B9B-C3AD-4651-BF62-F8F21111268A}
101.474400000422591,3.435899999881542,2763,WRI_248,Kilang Kelapa Sawit Minyak,Unknown,3.4359,101.4744,MYS,None,Unknown,{E9815813-CA0F-4ACC-BF62-8EC65B296495}
102.483899999921221,2.985499999654907,2764,WRI_25,Prosper Palm Oil Mill,Unknown,2.9855,102.4839,MYS,None,Unknown,{EDC43BA1-98C8-4632-A04B-202127675320}
101.659200000435163,2.852699999774629,2765,WRI_251,Seri Ulu Langat Palm Oil Sdn Bhd,Unknown,2.8527,101.6592,MYS,None,Unknown,{5559DCF2-F2DF-43EC-A53F-1463616F55D1}
103.067600000136508,4.990599999959723,2766,WRI_252,K.K.S Jerangau Barat,Unknown,4.9906,103.0676,MYS,None,Unknown,{F7FF2974-317D-416C-B7C7-73BDEF834E33}
103.318099999743822,4.573300000041745,2767,WRI_253,K.K.S Rasau Kerteh,Unknown,4.5733,103.3181,MYS,None,Unknown,{02504BFE-EBB9-4326-972C-047C7F118E50}
117.887500000071498,4.263300000023394,2768,WRI_254,AUMKAR OIL MILL,Unknown,4.2633,117.8875,MYS,None,Unknown,{5479E7CB-8A9E-4A8F-874C-A7B82FB9EEAA}
116.708299999563337,6.571699999776321,2769,WRI_255,K.K.S. LANGKON,Unknown,6.5717,116.7083,MYS,None,Unknown,{390D825B-194C-4204-9096-04A83742DACE}
118.186699999664157,4.469500000195537,2770,WRI_256,KILANG KELAPA SAWIT KUNAK,Unknown,4.4695,118.1867,MYS,None,Unknown,{C4A52F04-DC1F-4516-AC3A-92C2C865618F}
118.437600000202849,5.549100000322611,2771,WRI_257,KILANG KELAPA SAWIT LEE PANG,Unknown,5.5491,118.4376,MYS,RSPO Certified,Unknown,{A4CFE26D-7B6B-4331-A1DE-8DB3F265E105}
102.409399999598719,2.533600000435628,2772,WRI_26,Dupont & Leosk,Unknown,2.5336,102.4094,MYS,None,Unknown,{FAB2C992-94B2-419D-8C9D-E7F49A0869F3}
118.437699999761961,4.489200000191881,2773,WRI_260,KILANG KELAPA SAWIT SEGARIA,Unknown,4.4892,118.4377,MYS,None,Unknown,{DFEDC65F-9F53-49F8-AD91-2D58481F10AA}
118.042199999840463,5.885699999981855,2774,WRI_263,KKS SEGALIUD,Unknown,5.8857,118.0422,MYS,None,Unknown,{BBE0098D-24DD-4F4E-BE81-94767F99E32A}
118.14050000033474,4.405499999920306,2775,WRI_264,KKS SUNGAI BURUNG,Unknown,4.4055,118.1405,MYS,None,Unknown,{F76AC265-89DD-4546-B66E-5AC6F2272C38}
118.122200000168718,5.651600000086761,2776,WRI_269,SEPAGAYA PALM OIL MILL,Unknown,5.6516,118.1222,MYS,None,Unknown,{3342C3D9-B509-4C48-8F17-67535EAB3E54}
103.656400000324439,2.406400000035181,2777,WRI_272,KKS Nitar,Unknown,2.4064,103.6564,MYS,None,Unknown,{3AD9AC7E-E736-4A87-BF57-91482D13CBFA}
100.150278000316305,1.792778000223703,2778,WRI_2730,Aek Torop Palm Oil Mill,Unknown,1.792778,100.150278,IDN,None,PT Perkebunan Nusantara III,{416D3118-5D3D-4B18-8529-00299449B7F9}
100.102443999621045,1.621166999699371,2779,WRI_2732,Aek Sigala gala Mill,Unknown,1.621167,100.102444,IDN,None,PT. Barumun Agro Sentosa (Formerly known as: PT First Mujur Plantation and Industry),{614F43B6-7C08-4459-AF3E-F2249F244553}
100.708100000376618,5.394100000197358,2780,WRI_2740,Sungai Dingin Oil Mill,Unknown,5.3941,100.7081,MYS,None,Sime Darby,{2C83B79C-107C-452D-AB96-A78CF375BF82}
100.444999999727244,4.96449999983889,2781,WRI_2741,Chersonese Oil Mill,Unknown,4.9645,100.445,MYS,None,Sime Darby,{A91955DA-E8B8-427E-94F8-FE23204B0F97}
100.985600000420334,3.969200000171927,2782,WRI_2744,Seri Intan Oil Mill,Unknown,3.9692,100.9856,MYS,None,Sime Darby,{C0548FDF-602B-4DD9-8D2F-59808700E34D}
101.066700000390412,3.983299999558974,2783,WRI_2745,Selabak Oil Mill,Unknown,3.9833,101.0667,MYS,None,Sime Darby,{269B9966-4251-4959-A9BF-6EDEDFB2915F}
101.417600000216467,3.395599999904493,2784,WRI_2746,Tennamaram Oil Mill,Unknown,3.3956,101.4176,MYS,None,Sime Darby,{10D34E23-CD93-428D-99C3-3147EA17328F}
101.360100000401658,2.883300000313813,2785,WRI_2748,East Oil Mill,Unknown,2.8833,101.3601,MYS,None,Sime Darby,{25D82595-1612-47AD-8E34-9DB36D83442D}
102.455100000234253,2.253400000071431,2786,WRI_2757,Kempas Oil Mill,Unknown,2.2534,102.4551,MYS,None,Sime Darby,{25C60AE6-0CA5-472F-A108-911783CA14F7}
102.436800000068231,2.200499999659854,2787,WRI_2758,Diamond Jubilee Oil Mill,Unknown,2.2005,102.4368,MYS,None,Sime Darby,{8154604A-9BC1-4FAD-8D23-2056C7EBF1E4}
102.758999999766459,2.082999999813978,2788,WRI_2759,Nordanal Oil Mill,Unknown,2.083,102.759,MYS,None,Sime Darby,{C7D7DF02-7C4F-4984-BB5D-12EFC71E8B90}
102.303399999815099,3.205800000097146,2789,WRI_276,KKS Bukit Mendi,Unknown,3.2058,102.3034,MYS,RSPO Certified,Unknown,{15721B0B-D582-4E59-B9B1-BB1E3AE3D4E9}
103.454199999771078,1.808500000396844,2790,WRI_2764,Hadapan Oil Mill,Unknown,1.8085,103.4542,MYS,None,Sime Darby,{31A59418-5ACC-45FC-BBF2-08BC1DE2BD51}
117.830000000256703,4.36999999955898,2791,WRI_2769,Merotai Oil Mill,Unknown,4.37,117.83,MYS,None,Sime Darby,{8C11E602-505E-4124-88A8-14EC2768E661}
113.347700000101185,3.400900000352152,2792,WRI_2771,Rajawali Oil Mill,Unknown,3.4009,113.3477,MYS,None,Sime Darby,{C381B5E6-0D15-40A5-93C6-733CF16883EE}
113.358399999638664,3.54070000011762,2793,WRI_2772,Derawan Oil Mill,Unknown,3.5407,113.3584,MYS,None,Sime Darby,{EF14F0D3-CDD1-45C8-817B-5F2ED480E71F}
-73.1114655600974,3.035593889138939,2794,WRI_2788,ACEITES S.A.,Unknown,3.03559389,-73.11146556,COL,None,CI BIOCOSTA,{FD355635-5C28-4BF1-8280-8ABE71FCED7A}
104.1797219997772,1.474167000381449,2795,WRI_2789,ADELA POM,Unknown,1.474167,104.179722,MYS,None,FELDA,{C79E8E54-B01C-4D8E-8A71-41E4BC26F53E}
100.861600000046323,3.901400000132057,2796,WRI_279,Kilang Kelapa Sawit Flemington,Unknown,3.9014,100.8616,MYS,None,Unknown,{A3936C76-C4F5-4C02-947E-BC9AE276BD32}
112.861882999730327,-1.588932999917848,2797,WRI_2790,ADHYAKSA  DHARMASATYA,Unknown,-1.588933,112.861883,IDN,None,PARENTNAME IS MILLNAME,{21E3D9CF-49C2-452A-97BA-A02E675B0E63}
114.119097999571636,4.541034999773398,2798,WRI_2792,ADONG MILL,Unknown,4.541035,114.119098,MYS,None,WOODMAN GROUP,{10C46318-62C0-41ED-977A-98E29E580D9B}
102.420864200439979,-3.999568699716244,2799,WRI_2794,AGRI ANDALAS,Unknown,-3.9995687,102.4208642,IDN,None,PT AGRI ANDALAS,{4AAC6092-677E-4104-AC93-BC6474FCB560}
101.630138999733987,-3.200972000114658,2800,WRI_2795,AGRICINAL,Unknown,-3.200972,101.630139,IDN,None,AGRICINAL,{E483680D-F8F4-43C3-A463-D67EA641812E}
102.301110999944697,-1.963887999967823,2801,WRI_2796,AGRINDO INDAH PERSADA 2,Unknown,-1.963888,102.301111,IDN,None,WILMAR GROUP,{CF7E217D-55D5-443F-A9BD-9F07D732C39A}
101.458800000030678,0.34819720008171,2802,WRI_2797,AGRO ABADI,Unknown,0.3481972,101.4588,IDN,None,PT AGRO ABADI,{4E7250D6-57D7-4CCF-BF3A-6DD4CB9AFF04}
102.457899999567516,3.104399999571571,2803,WRI_28,Jeng Huat (Bahau) Realty,Unknown,3.1044,102.4579,MYS,None,Unknown,{1FB3B65F-FBEA-4C1D-B9C3-6B6B4E76465E}
101.476599999706195,2.859400000038848,2804,WRI_280,Kilang Kelapa Sawit Eng Hong Sdn Bhd,Unknown,2.8594,101.4766,MYS,None,Unknown,{D5F203D1-F526-4F0A-ABDC-D438FCBFF9BD}
99.715570000350098,0.224337999685445,2805,WRI_2800,AGRO WIRA LIGATSA,Unknown,0.224338,99.71557,IDN,None,PT AGRO WIRA LIGATSA,{EE16362B-949C-4277-934A-42BE7AD33534}
110.458915000202225,-1.521221999803675,2806,WRI_2801,AGROLESTARI MANDIRI,Unknown,-1.521222,110.458915,IDN,None,PARENTNAME IS MILLNAME,{BAF7A6DB-6F7F-4B7A-84A0-1DCDC93862C1}
116.012888999671489,-3.053555999636301,2807,WRI_2802,AGROLESTARI SENTOSA SEI KUPANG MILL,Unknown,-3.053556,116.012889,IDN,None,GOLDEN AGRI,{870489FF-208D-4D36-976B-5C7266B8609D}
-87.065111109775543,15.688722219924824,2808,WRI_2804,AGROTOR,Unknown,15.68872222,-87.06511111,HND,None,COMPIÑIA AGRÍCOLA INDUSTRIAL CEIBEÑA S.A.,{DAD7C38E-D304-4FE8-8E2B-A66BF4D4FF48}
99.880670000080869,2.541258000156923,2809,WRI_2805,AGUNG AGRO LESTARI,Unknown,2.541258,99.88067,IDN,None,PT AGRO LESTARI,{96310CC9-60BA-41A0-B298-9C936D88B0D6}
104.026944000355869,1.666944000197958,2810,WRI_2806,AIR TAWAR POM,Unknown,1.666944,104.026944,MYS,None,FELDA,{19F69558-7C0D-41AE-AD2C-04E1CEB68A1A}
113.670644999613998,3.585435999622621,2811,WRI_2808,ALAMBUMI PALM OIL MILL,Unknown,3.585436,113.670645,MYS,None,PARENTNAME IS MILLNAME,{96C55606-05ED-448C-9EEF-3F613159AB01}
101.709800000128467,2.646899999892161,2812,WRI_281,Kilang Kelapa Sawit Fermanagh,Unknown,2.6469,101.7098,MYS,None,Unknown,{064023DA-9CC0-4D25-B03A-1E605721D37F}
105.186819400251252,-5.095458332618368,2813,WRI_2810,ANAKTUHA SAWIT MANDIRI,Unknown,-5.09545833,105.1868194,IDN,None,SUTOMO,{D0CD4D9F-B71D-44D1-BCFA-3C1BC07238D9}
114.88719399956851,-1.115693999759464,2814,WRI_2812,ANTANG GANDA UTAMA BUTONG,Unknown,-1.115694,114.887194,IDN,None,PARENTNAME IS MILLNAME,{D4FAAD05-5B31-4A0F-BB54-D9DCBC86E4BD}
118.101485999560481,4.37176699961599,2815,WRI_2815,APAS BALUNG MILL,Unknown,4.371767,118.101486,MYS,None,BORNEO SAMUDERA SDN BHD,{62B17C8E-BBFD-49AD-877B-0295038252CC}
113.464468999917585,3.676579999625357,2816,WRI_2816,ARAH BERSAMA,Unknown,3.67658,113.464469,MYS,None,TRADEWINDS PLANTATION BERHAD,{86665763-A6F1-47AA-887F-40DF54144183}
117.35355400035094,6.049533999897708,2817,WRI_2818,ASIATIC  SABAPALM,Unknown,6.049534,117.353554,MYS,None,GENTING PLANTATION BERHAD,{BACFBAC7-A418-4CBA-B4DC-8798533C1C7A}
117.869397000447293,5.281733000126088,2818,WRI_2819,ASIATIC  TRUSHIDUP,Unknown,5.281733,117.869397,MYS,None,GENTING PLANTATION BERHAD,{1A5ADA7A-02BB-4D0A-A057-E82DCFC58D29}
101.733699999859368,2.819699999627455,2819,WRI_282,Kilang Kelapa Sawit Sepang,Unknown,2.8197,101.7337,MYS,None,Unknown,{09EDB3A7-756E-42BF-972E-5848C27EDC58}
103.2092999997286,1.856363999607683,2820,WRI_2820,ASIATIC AYER ITAM,Unknown,1.856364,103.2093,MYS,None,GENTING PLANTATION BERHAD,{0FF8CC5B-9C75-4839-8F87-FEC0DE0C1947}
117.577749999830914,5.729988999751008,2821,WRI_2822,ASIATIC MEWAH,Unknown,5.729989,117.57775,MYS,None,GENTING PLANTATION BERHAD,{9B64BF79-6F09-4661-B5B2-13953DB8109A}
103.979000000055777,1.973699999918594,2822,WRI_2827,AWAN TIMUR,Unknown,1.9737,103.979,MYS,None,AWAN TIMUR GROUP,{AFF8FE6A-AE44-4831-97ED-B07C44F01E09}
103.399700000204376,4.756499999801431,2823,WRI_283,Kilang Kelapa Sawit Risda Durian Mas,Unknown,4.7565,103.3997,MYS,None,Unknown,{DE71EAD2-C6E6-4F1D-A4BA-EBFEA20A4A6D}
118.186118999881117,4.379055000376589,2824,WRI_2831,BALUNG,Unknown,4.379055,118.186119,MYS,None,MKIC,{E90B2D3B-6F72-4DAC-907E-68C0B4B0B771}
118.441388999748185,5.187221999554993,2825,WRI_2833,BATU PUTIH,Unknown,5.187222,118.441389,MYS,None,TRADEWINDS PLANTATION BERHAD,{414B18D2-62D7-49D4-A676-AF947D39628A}
118.088569000122632,4.755330999673378,2826,WRI_2834,BATURONG PALM OIL MILL,Unknown,4.755331,118.088569,MYS,RSPO Certified,IOI CORPORATION BERHAD,{CDB140C6-44DF-4F3D-91ED-408CBC78A5A5}
113.068153999861337,3.06321400015792,2827,WRI_2836,BBC PALM OIL MILL,Unknown,3.063214,113.068154,MYS,None,PARENTNAME IS MILLNAME,{CE3284CD-BD36-44CC-A5B7-703E19CFBB9F}
111.822221999888654,-2.708333000438836,2828,WRI_2838,BEDAUN POM,Unknown,-2.708333,111.822222,IDN,None,EAGLE HIGH PLANTATIONS,{EAF9C320-4792-4BCD-A3BB-F75D2A41DEE5}
117.781300000271344,5.333999999603042,2829,WRI_284,K.K.S. SYARIMO,Unknown,5.334,117.7813,MYS,RSPO Certified,Unknown,{C7FBA579-CC9A-4B59-B68F-F93487E58729}
103.056000000075443,-4.533971999805672,2830,WRI_2840,BENGKULU SAWIT LESTARI,Unknown,-4.533972,103.056,IDN,None,PARENTNAME IS MILLNAME,{06A21470-03EA-4495-90AC-E6D4B54BFB8A}
104.164899999710187,-2.848943999802855,2831,WRI_2842,BETUNG,Unknown,-2.848944,104.1649,IDN,None,PTPN VII,{E72998E7-B8B1-4301-8909-B499D9792F01}
103.869167000345882,-1.74236100034475,2832,WRI_2844,BICCON AGRO MAKMUR,Unknown,-1.742361,103.869167,IDN,None,PARENTNAME IS MILLNAME,{18E1D059-DFCE-4398-A36D-33802E3BB353}
117.408207999903425,0.747877999619782,2833,WRI_2845,BIMA PALMA NUGRAHA,Unknown,0.747878,117.408208,IDN,None,PARENTNAME IS MILLNAME,{F2F15A38-8E07-438D-B82D-A7EBA308554F}
99.957166669615731,1.479483333118309,2834,WRI_2847,BINANGA,Unknown,1.47948333,99.95716667,IDN,None,PT AUSTINDO NUSANTARA JAYA AGRI,{D11D348E-E9BD-4FB9-8C30-3E75AB5B13CA}
